[
  {
    "id": 39256,
    "name": "Afa",
    "state_id": 4806,
    "state_code": "20R",
    "country_id": 75,
    "country_code": "FR",
    "latitude": "41.98396000",
    "longitude": "8.79833000",
    "wikiDataId": null
  },
  {
    "id": 39298,
    "name": "Ajaccio",
    "state_id": 4806,
    "state_code": "20R",
    "country_id": 75,
    "country_code": "FR",
    "latitude": "41.91886000",
    "longitude": "8.73812000",
    "wikiDataId": null
  },
  {
    "id": 39300,
    "name": "Alata",
    "state_id": 4806,
    "state_code": "20R",
    "country_id": 75,
    "country_code": "FR",
    "latitude": "41.97636000",
    "longitude": "8.74208000",
    "wikiDataId": null
  },
  {
    "id": 39308,
    "name": "Albitreccia",
    "state_id": 4806,
    "state_code": "20R",
    "country_id": 75,
    "country_code": "FR",
    "latitude": "41.86301000",
    "longitude": "8.94262000",
    "wikiDataId": null
  },
  {
    "id": 39343,
    "name": "Aléria",
    "state_id": 4806,
    "state_code": "20R",
    "country_id": 75,
    "country_code": "FR",
    "latitude": "42.10431000",
    "longitude": "9.51265000",
    "wikiDataId": null
  },
  {
    "id": 39442,
    "name": "Appietto",
    "state_id": 4806,
    "state_code": "20R",
    "country_id": 75,
    "country_code": "FR",
    "latitude": "42.01426000",
    "longitude": "8.76855000",
    "wikiDataId": null
  },
  {
    "id": 39804,
    "name": "Bastia",
    "state_id": 4806,
    "state_code": "20R",
    "country_id": 75,
    "country_code": "FR",
    "latitude": "42.70278000",
    "longitude": "9.45000000",
    "wikiDataId": null
  },
  {
    "id": 40018,
    "name": "Biguglia",
    "state_id": 4806,
    "state_code": "20R",
    "country_id": 75,
    "country_code": "FR",
    "latitude": "42.62692000",
    "longitude": "9.42018000",
    "wikiDataId": null
  },
  {
    "id": 40114,
    "name": "Bonifacio",
    "state_id": 4806,
    "state_code": "20R",
    "country_id": 75,
    "country_code": "FR",
    "latitude": "41.38740000",
    "longitude": "9.15941000",
    "wikiDataId": null
  },
  {
    "id": 40140,
    "name": "Borgo",
    "state_id": 4806,
    "state_code": "20R",
    "country_id": 75,
    "country_code": "FR",
    "latitude": "42.55488000",
    "longitude": "9.42636000",
    "wikiDataId": null
  },
  {
    "id": 40252,
    "name": "Brando",
    "state_id": 4806,
    "state_code": "20R",
    "country_id": 75,
    "country_code": "FR",
    "latitude": "42.76667000",
    "longitude": "9.45000000",
    "wikiDataId": null
  },
  {
    "id": 40470,
    "name": "Calenzana",
    "state_id": 4806,
    "state_code": "20R",
    "country_id": 75,
    "country_code": "FR",
    "latitude": "42.50855000",
    "longitude": "8.85538000",
    "wikiDataId": null
  },
  {
    "id": 40479,
    "name": "Calvi",
    "state_id": 4806,
    "state_code": "20R",
    "country_id": 75,
    "country_code": "FR",
    "latitude": "42.56604000",
    "longitude": "8.75713000",
    "wikiDataId": null
  },
  {
    "id": 40543,
    "name": "Cargèse",
    "state_id": 4806,
    "state_code": "20R",
    "country_id": 75,
    "country_code": "FR",
    "latitude": "42.13629000",
    "longitude": "8.59586000",
    "wikiDataId": null
  },
  {
    "id": 40611,
    "name": "Cauro",
    "state_id": 4806,
    "state_code": "20R",
    "country_id": 75,
    "country_code": "FR",
    "latitude": "41.91756000",
    "longitude": "8.91480000",
    "wikiDataId": null
  },
  {
    "id": 41384,
    "name": "Cuttoli-Corticchiato",
    "state_id": 4806,
    "state_code": "20R",
    "country_id": 75,
    "country_code": "FR",
    "latitude": "41.98333000",
    "longitude": "8.91667000",
    "wikiDataId": null
  },
  {
    "id": 41818,
    "name": "Figari",
    "state_id": 4806,
    "state_code": "20R",
    "country_id": 75,
    "country_code": "FR",
    "latitude": "41.48792000",
    "longitude": "9.13013000",
    "wikiDataId": null
  },
  {
    "id": 42227,
    "name": "Grosseto-Prugna",
    "state_id": 4806,
    "state_code": "20R",
    "country_id": 75,
    "country_code": "FR",
    "latitude": "41.87097000",
    "longitude": "8.96403000",
    "wikiDataId": null
  },
  {
    "id": 44736,
    "name": "Olmeto",
    "state_id": 4806,
    "state_code": "20R",
    "country_id": 75,
    "country_code": "FR",
    "latitude": "41.71724000",
    "longitude": "8.91783000",
    "wikiDataId": null
  },
  {
    "id": 44896,
    "name": "Peri",
    "state_id": 4806,
    "state_code": "20R",
    "country_id": 75,
    "country_code": "FR",
    "latitude": "42.00345000",
    "longitude": "8.92066000",
    "wikiDataId": null
  },
  {
    "id": 44966,
    "name": "Pietranera",
    "state_id": 4806,
    "state_code": "20R",
    "country_id": 75,
    "country_code": "FR",
    "latitude": "42.72338000",
    "longitude": "9.45621000",
    "wikiDataId": null
  },
  {
    "id": 44967,
    "name": "Pietrosella",
    "state_id": 4806,
    "state_code": "20R",
    "country_id": 75,
    "country_code": "FR",
    "latitude": "41.83576000",
    "longitude": "8.84573000",
    "wikiDataId": null
  },
  {
    "id": 45245,
    "name": "Porto-Vecchio",
    "state_id": 4806,
    "state_code": "20R",
    "country_id": 75,
    "country_code": "FR",
    "latitude": "41.59101000",
    "longitude": "9.27947000",
    "wikiDataId": null
  },
  {
    "id": 45294,
    "name": "Propriano",
    "state_id": 4806,
    "state_code": "20R",
    "country_id": 75,
    "country_code": "FR",
    "latitude": "41.67590000",
    "longitude": "8.90412000",
    "wikiDataId": null
  },
  {
    "id": 46807,
    "name": "Sari-Solenzara",
    "state_id": 4806,
    "state_code": "20R",
    "country_id": 75,
    "country_code": "FR",
    "latitude": "41.83519000",
    "longitude": "9.37470000",
    "wikiDataId": null
  },
  {
    "id": 46817,
    "name": "Sarrola",
    "state_id": 4806,
    "state_code": "20R",
    "country_id": 75,
    "country_code": "FR",
    "latitude": "42.02828000",
    "longitude": "8.84241000",
    "wikiDataId": null
  },
  {
    "id": 46823,
    "name": "Sartène",
    "state_id": 4806,
    "state_code": "20R",
    "country_id": 75,
    "country_code": "FR",
    "latitude": "41.61667000",
    "longitude": "8.98333000",
    "wikiDataId": null
  },
  {
    "id": 48028,
    "name": "Zonza",
    "state_id": 4806,
    "state_code": "20R",
    "country_id": 75,
    "country_code": "FR",
    "latitude": "41.74934000",
    "longitude": "9.17082000",
    "wikiDataId": null
  }
]