[
  {
    "id": 19281,
    "name": "Ankang",
    "state_id": 2272,
    "state_code": "SN",
    "country_id": 45,
    "country_code": "CN",
    "latitude": "32.70646480",
    "longitude": "109.01778370",
    "wikiDataId": null
  },
  {
    "id": 158822,
    "name": "Ansai",
    "state_id": 2272,
    "state_code": "SN",
    "country_id": 45,
    "country_code": "CN",
    "latitude": "36.97361100",
    "longitude": "109.19583300",
    "wikiDataId": null
  },
  {
    "id": 158866,
    "name": "Baihe",
    "state_id": 2272,
    "state_code": "SN",
    "country_id": 45,
    "country_code": "CN",
    "latitude": "32.71885870",
    "longitude": "109.92478430",
    "wikiDataId": null
  },
  {
    "id": 158816,
    "name": "Baishui",
    "state_id": 2272,
    "state_code": "SN",
    "country_id": 45,
    "country_code": "CN",
    "latitude": "35.22222200",
    "longitude": "109.51722200",
    "wikiDataId": null
  },
  {
    "id": 19315,
    "name": "Baoji",
    "state_id": 2272,
    "state_code": "SN",
    "country_id": 45,
    "country_code": "CN",
    "latitude": "34.36097130",
    "longitude": "107.23223780",
    "wikiDataId": null
  },
  {
    "id": 158821,
    "name": "Baota",
    "state_id": 2272,
    "state_code": "SN",
    "country_id": 45,
    "country_code": "CN",
    "latitude": "36.58532190",
    "longitude": "109.48384710",
    "wikiDataId": null
  },
  {
    "id": 158768,
    "name": "Baqiao",
    "state_id": 2272,
    "state_code": "SN",
    "country_id": 45,
    "country_code": "CN",
    "latitude": "34.27456740",
    "longitude": "109.05951990",
    "wikiDataId": null
  },
  {
    "id": 158766,
    "name": "Beilin",
    "state_id": 2272,
    "state_code": "SN",
    "country_id": 45,
    "country_code": "CN",
    "latitude": "34.25844620",
    "longitude": "108.93611010",
    "wikiDataId": null
  },
  {
    "id": 158808,
    "name": "Binzhou",
    "state_id": 2272,
    "state_code": "SN",
    "country_id": 45,
    "country_code": "CN",
    "latitude": "35.03628780",
    "longitude": "108.07976040",
    "wikiDataId": null
  },
  {
    "id": 158773,
    "name": "Chang'an",
    "state_id": 2272,
    "state_code": "SN",
    "country_id": 45,
    "country_code": "CN",
    "latitude": "34.26100400",
    "longitude": "108.94233630",
    "wikiDataId": null
  },
  {
    "id": 158803,
    "name": "Changwu",
    "state_id": 2272,
    "state_code": "SN",
    "country_id": 45,
    "country_code": "CN",
    "latitude": "35.16967400",
    "longitude": "107.82130100",
    "wikiDataId": null
  },
  {
    "id": 158785,
    "name": "Chencang",
    "state_id": 2272,
    "state_code": "SN",
    "country_id": 45,
    "country_code": "CN",
    "latitude": "34.35133220",
    "longitude": "107.36393490",
    "wikiDataId": null
  },
  {
    "id": 158814,
    "name": "Chengcheng",
    "state_id": 2272,
    "state_code": "SN",
    "country_id": 45,
    "country_code": "CN",
    "latitude": "35.24939030",
    "longitude": "109.89876160",
    "wikiDataId": null
  },
  {
    "id": 158836,
    "name": "Chenggu",
    "state_id": 2272,
    "state_code": "SN",
    "country_id": 45,
    "country_code": "CN",
    "latitude": "33.34194400",
    "longitude": "107.19666700",
    "wikiDataId": null
  },
  {
    "id": 158805,
    "name": "Chunhua",
    "state_id": 2272,
    "state_code": "SN",
    "country_id": 45,
    "country_code": "CN",
    "latitude": "34.82722200",
    "longitude": "108.55888900",
    "wikiDataId": null
  },
  {
    "id": 158812,
    "name": "Dali",
    "state_id": 2272,
    "state_code": "SN",
    "country_id": 45,
    "country_code": "CN",
    "latitude": "34.78361100",
    "longitude": "109.97666700",
    "wikiDataId": null
  },
  {
    "id": 158871,
    "name": "Danfeng",
    "state_id": 2272,
    "state_code": "SN",
    "country_id": 45,
    "country_code": "CN",
    "latitude": "33.70426050",
    "longitude": "110.42723230",
    "wikiDataId": null
  },
  {
    "id": 158850,
    "name": "Dingbian",
    "state_id": 2272,
    "state_code": "SN",
    "country_id": 45,
    "country_code": "CN",
    "latitude": "37.39757800",
    "longitude": "107.79412600",
    "wikiDataId": null
  },
  {
    "id": 158793,
    "name": "Fengxian",
    "state_id": 2272,
    "state_code": "SN",
    "country_id": 45,
    "country_code": "CN",
    "latitude": "33.91406020",
    "longitude": "106.52391500",
    "wikiDataId": null
  },
  {
    "id": 158786,
    "name": "Fengxiang",
    "state_id": 2272,
    "state_code": "SN",
    "country_id": 45,
    "country_code": "CN",
    "latitude": "34.56000000",
    "longitude": "107.42055600",
    "wikiDataId": null
  },
  {
    "id": 158844,
    "name": "Foping",
    "state_id": 2272,
    "state_code": "SN",
    "country_id": 45,
    "country_code": "CN",
    "latitude": "33.52222200",
    "longitude": "107.93250000",
    "wikiDataId": null
  },
  {
    "id": 158788,
    "name": "Fufeng",
    "state_id": 2272,
    "state_code": "SN",
    "country_id": 45,
    "country_code": "CN",
    "latitude": "34.41847630",
    "longitude": "107.95030420",
    "wikiDataId": null
  },
  {
    "id": 158848,
    "name": "Fugu",
    "state_id": 2272,
    "state_code": "SN",
    "country_id": 45,
    "country_code": "CN",
    "latitude": "39.13752050",
    "longitude": "110.89870660",
    "wikiDataId": null
  },
  {
    "id": 158817,
    "name": "Fuping",
    "state_id": 2272,
    "state_code": "SN",
    "country_id": 45,
    "country_code": "CN",
    "latitude": "34.90243600",
    "longitude": "109.22784500",
    "wikiDataId": null
  },
  {
    "id": 158828,
    "name": "Fuxian",
    "state_id": 2272,
    "state_code": "SN",
    "country_id": 45,
    "country_code": "CN",
    "latitude": "35.98833300",
    "longitude": "109.13722200",
    "wikiDataId": null
  },
  {
    "id": 158827,
    "name": "Ganquan",
    "state_id": 2272,
    "state_code": "SN",
    "country_id": 45,
    "country_code": "CN",
    "latitude": "36.36833300",
    "longitude": "109.12527800",
    "wikiDataId": null
  },
  {
    "id": 158774,
    "name": "Gaoling",
    "state_id": 2272,
    "state_code": "SN",
    "country_id": 45,
    "country_code": "CN",
    "latitude": "34.51293310",
    "longitude": "109.06218160",
    "wikiDataId": null
  },
  {
    "id": 19578,
    "name": "Guozhen",
    "state_id": 2272,
    "state_code": "SN",
    "country_id": 45,
    "country_code": "CN",
    "latitude": "34.36591000",
    "longitude": "107.35904000",
    "wikiDataId": null
  },
  {
    "id": 158858,
    "name": "Hanbin",
    "state_id": 2272,
    "state_code": "SN",
    "country_id": 45,
    "country_code": "CN",
    "latitude": "32.69795400",
    "longitude": "109.02217500",
    "wikiDataId": null
  },
  {
    "id": 19595,
    "name": "Hancheng",
    "state_id": 2272,
    "state_code": "SN",
    "country_id": 45,
    "country_code": "CN",
    "latitude": "35.46028000",
    "longitude": "110.42917000",
    "wikiDataId": null
  },
  {
    "id": 158818,
    "name": "Hancheng",
    "state_id": 2272,
    "state_code": "SN",
    "country_id": 45,
    "country_code": "CN",
    "latitude": "35.57527800",
    "longitude": "110.36138900",
    "wikiDataId": null
  },
  {
    "id": 158834,
    "name": "Hantai",
    "state_id": 2272,
    "state_code": "SN",
    "country_id": 45,
    "country_code": "CN",
    "latitude": "33.19655910",
    "longitude": "107.05043260",
    "wikiDataId": null
  },
  {
    "id": 158859,
    "name": "Hanyin",
    "state_id": 2272,
    "state_code": "SN",
    "country_id": 45,
    "country_code": "CN",
    "latitude": "32.89225900",
    "longitude": "108.50463710",
    "wikiDataId": null
  },
  {
    "id": 19600,
    "name": "Hanzhong",
    "state_id": 2272,
    "state_code": "SN",
    "country_id": 45,
    "country_code": "CN",
    "latitude": "33.17112400",
    "longitude": "107.04500900",
    "wikiDataId": null
  },
  {
    "id": 158847,
    "name": "Hengshan",
    "state_id": 2272,
    "state_code": "SN",
    "country_id": 45,
    "country_code": "CN",
    "latitude": "37.86722200",
    "longitude": "109.40750000",
    "wikiDataId": null
  },
  {
    "id": 158813,
    "name": "Heyang",
    "state_id": 2272,
    "state_code": "SN",
    "country_id": 45,
    "country_code": "CN",
    "latitude": "35.23575700",
    "longitude": "110.14079310",
    "wikiDataId": null
  },
  {
    "id": 158832,
    "name": "Huangling",
    "state_id": 2272,
    "state_code": "SN",
    "country_id": 45,
    "country_code": "CN",
    "latitude": "35.66551750",
    "longitude": "108.95635020",
    "wikiDataId": null
  },
  {
    "id": 158831,
    "name": "Huanglong",
    "state_id": 2272,
    "state_code": "SN",
    "country_id": 45,
    "country_code": "CN",
    "latitude": "35.72861100",
    "longitude": "109.89722200",
    "wikiDataId": null
  },
  {
    "id": 19667,
    "name": "Huayin",
    "state_id": 2272,
    "state_code": "SN",
    "country_id": 45,
    "country_code": "CN",
    "latitude": "34.56528000",
    "longitude": "110.06639000",
    "wikiDataId": null
  },
  {
    "id": 158819,
    "name": "Huayin",
    "state_id": 2272,
    "state_code": "SN",
    "country_id": 45,
    "country_code": "CN",
    "latitude": "34.56751630",
    "longitude": "110.09209150",
    "wikiDataId": null
  },
  {
    "id": 158810,
    "name": "Huazhou",
    "state_id": 2272,
    "state_code": "SN",
    "country_id": 45,
    "country_code": "CN",
    "latitude": "34.51179770",
    "longitude": "109.75701030",
    "wikiDataId": null
  },
  {
    "id": 158775,
    "name": "Huyi",
    "state_id": 2272,
    "state_code": "SN",
    "country_id": 45,
    "country_code": "CN",
    "latitude": "33.99969000",
    "longitude": "108.58763500",
    "wikiDataId": null
  },
  {
    "id": 158853,
    "name": "Jiaxian",
    "state_id": 2272,
    "state_code": "SN",
    "country_id": 45,
    "country_code": "CN",
    "latitude": "38.01906120",
    "longitude": "110.48918240",
    "wikiDataId": null
  },
  {
    "id": 158849,
    "name": "Jingbian",
    "state_id": 2272,
    "state_code": "SN",
    "country_id": 45,
    "country_code": "CN",
    "latitude": "37.48278910",
    "longitude": "108.80443910",
    "wikiDataId": null
  },
  {
    "id": 158799,
    "name": "Jingyang",
    "state_id": 2272,
    "state_code": "SN",
    "country_id": 45,
    "country_code": "CN",
    "latitude": "34.53068810",
    "longitude": "108.83112810",
    "wikiDataId": null
  },
  {
    "id": 158784,
    "name": "Jintai",
    "state_id": 2272,
    "state_code": "SN",
    "country_id": 45,
    "country_code": "CN",
    "latitude": "34.39854220",
    "longitude": "107.22829350",
    "wikiDataId": null
  },
  {
    "id": 158863,
    "name": "Langao",
    "state_id": 2272,
    "state_code": "SN",
    "country_id": 45,
    "country_code": "CN",
    "latitude": "32.21250000",
    "longitude": "108.86388900",
    "wikiDataId": null
  },
  {
    "id": 158776,
    "name": "Lantian",
    "state_id": 2272,
    "state_code": "SN",
    "country_id": 45,
    "country_code": "CN",
    "latitude": "34.09012520",
    "longitude": "109.40215950",
    "wikiDataId": null
  },
  {
    "id": 158767,
    "name": "Lianhu",
    "state_id": 2272,
    "state_code": "SN",
    "country_id": 45,
    "country_code": "CN",
    "latitude": "34.26886790",
    "longitude": "108.93040860",
    "wikiDataId": null
  },
  {
    "id": 19852,
    "name": "Lintong",
    "state_id": 2272,
    "state_code": "SN",
    "country_id": 45,
    "country_code": "CN",
    "latitude": "34.37803000",
    "longitude": "109.20892000",
    "wikiDataId": null
  },
  {
    "id": 158772,
    "name": "Lintong",
    "state_id": 2272,
    "state_code": "SN",
    "country_id": 45,
    "country_code": "CN",
    "latitude": "34.36844480",
    "longitude": "109.20929370",
    "wikiDataId": null
  },
  {
    "id": 158809,
    "name": "Linwei",
    "state_id": 2272,
    "state_code": "SN",
    "country_id": 45,
    "country_code": "CN",
    "latitude": "34.49409670",
    "longitude": "109.49202160",
    "wikiDataId": null
  },
  {
    "id": 158792,
    "name": "Linyou",
    "state_id": 2272,
    "state_code": "SN",
    "country_id": 45,
    "country_code": "CN",
    "latitude": "34.80027800",
    "longitude": "107.70888900",
    "wikiDataId": null
  },
  {
    "id": 158801,
    "name": "Liquan",
    "state_id": 2272,
    "state_code": "SN",
    "country_id": 45,
    "country_code": "CN",
    "latitude": "34.47971000",
    "longitude": "108.42454450",
    "wikiDataId": null
  },
  {
    "id": 158843,
    "name": "Liuba",
    "state_id": 2272,
    "state_code": "SN",
    "country_id": 45,
    "country_code": "CN",
    "latitude": "33.59111100",
    "longitude": "106.95333300",
    "wikiDataId": null
  },
  {
    "id": 158790,
    "name": "Longxian",
    "state_id": 2272,
    "state_code": "SN",
    "country_id": 45,
    "country_code": "CN",
    "latitude": "34.89387630",
    "longitude": "106.85290390",
    "wikiDataId": null
  },
  {
    "id": 158841,
    "name": "Lueyang",
    "state_id": 2272,
    "state_code": "SN",
    "country_id": 45,
    "country_code": "CN",
    "latitude": "33.33037170",
    "longitude": "106.14898070",
    "wikiDataId": null
  },
  {
    "id": 158829,
    "name": "Luochuan",
    "state_id": 2272,
    "state_code": "SN",
    "country_id": 45,
    "country_code": "CN",
    "latitude": "35.76239530",
    "longitude": "109.42695560",
    "wikiDataId": null
  },
  {
    "id": 158870,
    "name": "Luonan",
    "state_id": 2272,
    "state_code": "SN",
    "country_id": 45,
    "country_code": "CN",
    "latitude": "34.16194400",
    "longitude": "110.22750000",
    "wikiDataId": null
  },
  {
    "id": 158789,
    "name": "Meixian",
    "state_id": 2272,
    "state_code": "SN",
    "country_id": 45,
    "country_code": "CN",
    "latitude": "34.27599760",
    "longitude": "107.74509820",
    "wikiDataId": null
  },
  {
    "id": 158839,
    "name": "Mianxian",
    "state_id": 2272,
    "state_code": "SN",
    "country_id": 45,
    "country_code": "CN",
    "latitude": "33.15511040",
    "longitude": "106.66949950",
    "wikiDataId": null
  },
  {
    "id": 158852,
    "name": "Mizhi",
    "state_id": 2272,
    "state_code": "SN",
    "country_id": 45,
    "country_code": "CN",
    "latitude": "37.83416700",
    "longitude": "110.19000000",
    "wikiDataId": null
  },
  {
    "id": 158835,
    "name": "Nanzheng",
    "state_id": 2272,
    "state_code": "SN",
    "country_id": 45,
    "country_code": "CN",
    "latitude": "32.89722200",
    "longitude": "106.89916700",
    "wikiDataId": null
  },
  {
    "id": 158840,
    "name": "Ningqiang",
    "state_id": 2272,
    "state_code": "SN",
    "country_id": 45,
    "country_code": "CN",
    "latitude": "32.94222200",
    "longitude": "106.22638900",
    "wikiDataId": null
  },
  {
    "id": 158861,
    "name": "Ningshan",
    "state_id": 2272,
    "state_code": "SN",
    "country_id": 45,
    "country_code": "CN",
    "latitude": "33.52678000",
    "longitude": "108.43546900",
    "wikiDataId": null
  },
  {
    "id": 158864,
    "name": "Pingli",
    "state_id": 2272,
    "state_code": "SN",
    "country_id": 45,
    "country_code": "CN",
    "latitude": "32.31166700",
    "longitude": "109.30833300",
    "wikiDataId": null
  },
  {
    "id": 158815,
    "name": "Pucheng",
    "state_id": 2272,
    "state_code": "SN",
    "country_id": 45,
    "country_code": "CN",
    "latitude": "34.95612140",
    "longitude": "109.58326600",
    "wikiDataId": null
  },
  {
    "id": 158800,
    "name": "Qianxian",
    "state_id": 2272,
    "state_code": "SN",
    "country_id": 45,
    "country_code": "CN",
    "latitude": "34.53082520",
    "longitude": "108.23989030",
    "wikiDataId": null
  },
  {
    "id": 158791,
    "name": "Qianyang",
    "state_id": 2272,
    "state_code": "SN",
    "country_id": 45,
    "country_code": "CN",
    "latitude": "34.75881600",
    "longitude": "107.16644500",
    "wikiDataId": null
  },
  {
    "id": 158795,
    "name": "Qindu",
    "state_id": 2272,
    "state_code": "SN",
    "country_id": 45,
    "country_code": "CN",
    "latitude": "34.33060500",
    "longitude": "108.70161680",
    "wikiDataId": null
  },
  {
    "id": 158855,
    "name": "Qingjian",
    "state_id": 2272,
    "state_code": "SN",
    "country_id": 45,
    "country_code": "CN",
    "latitude": "37.21107110",
    "longitude": "110.23102040",
    "wikiDataId": null
  },
  {
    "id": 158787,
    "name": "Qishan",
    "state_id": 2272,
    "state_code": "SN",
    "country_id": 45,
    "country_code": "CN",
    "latitude": "34.44791950",
    "longitude": "107.71114100",
    "wikiDataId": null
  },
  {
    "id": 158798,
    "name": "Sanyuan",
    "state_id": 2272,
    "state_code": "SN",
    "country_id": 45,
    "country_code": "CN",
    "latitude": "34.62005060",
    "longitude": "108.92706300",
    "wikiDataId": null
  },
  {
    "id": 158868,
    "name": "Shangluo",
    "state_id": 2272,
    "state_code": "SN",
    "country_id": 45,
    "country_code": "CN",
    "latitude": "33.86911560",
    "longitude": "109.93781120",
    "wikiDataId": null
  },
  {
    "id": 158872,
    "name": "Shangnan",
    "state_id": 2272,
    "state_code": "SN",
    "country_id": 45,
    "country_code": "CN",
    "latitude": "33.52821040",
    "longitude": "110.87985710",
    "wikiDataId": null
  },
  {
    "id": 158869,
    "name": "Shangzhou",
    "state_id": 2272,
    "state_code": "SN",
    "country_id": 45,
    "country_code": "CN",
    "latitude": "33.86480330",
    "longitude": "109.93588760",
    "wikiDataId": null
  },
  {
    "id": 158873,
    "name": "Shanyang",
    "state_id": 2272,
    "state_code": "SN",
    "country_id": 45,
    "country_code": "CN",
    "latitude": "33.45611100",
    "longitude": "109.96333300",
    "wikiDataId": null
  },
  {
    "id": 158857,
    "name": "Shenmu",
    "state_id": 2272,
    "state_code": "SN",
    "country_id": 45,
    "country_code": "CN",
    "latitude": "38.83631890",
    "longitude": "110.31071220",
    "wikiDataId": null
  },
  {
    "id": 158860,
    "name": "Shiquan",
    "state_id": 2272,
    "state_code": "SN",
    "country_id": 45,
    "country_code": "CN",
    "latitude": "33.03996320",
    "longitude": "108.24354770",
    "wikiDataId": null
  },
  {
    "id": 158851,
    "name": "Suide",
    "state_id": 2272,
    "state_code": "SN",
    "country_id": 45,
    "country_code": "CN",
    "latitude": "37.53250520",
    "longitude": "110.23381960",
    "wikiDataId": null
  },
  {
    "id": 158794,
    "name": "Taibai",
    "state_id": 2272,
    "state_code": "SN",
    "country_id": 45,
    "country_code": "CN",
    "latitude": "33.94555600",
    "longitude": "107.43694400",
    "wikiDataId": null
  },
  {
    "id": 158778,
    "name": "Tongchuan",
    "state_id": 2272,
    "state_code": "SN",
    "country_id": 45,
    "country_code": "CN",
    "latitude": "34.89727290",
    "longitude": "108.94038450",
    "wikiDataId": null
  },
  {
    "id": 20188,
    "name": "Tongchuanshi",
    "state_id": 2272,
    "state_code": "SN",
    "country_id": 45,
    "country_code": "CN",
    "latitude": "35.07474000",
    "longitude": "109.08495000",
    "wikiDataId": null
  },
  {
    "id": 158811,
    "name": "Tongguan",
    "state_id": 2272,
    "state_code": "SN",
    "country_id": 45,
    "country_code": "CN",
    "latitude": "34.54557800",
    "longitude": "110.24105420",
    "wikiDataId": null
  },
  {
    "id": 158779,
    "name": "Wangyi",
    "state_id": 2272,
    "state_code": "SN",
    "country_id": 45,
    "country_code": "CN",
    "latitude": "35.04805600",
    "longitude": "109.06666700",
    "wikiDataId": null
  },
  {
    "id": 158783,
    "name": "Weibin",
    "state_id": 2272,
    "state_code": "SN",
    "country_id": 45,
    "country_code": "CN",
    "latitude": "34.35646360",
    "longitude": "107.15050340",
    "wikiDataId": null
  },
  {
    "id": 158797,
    "name": "Weicheng",
    "state_id": 2272,
    "state_code": "SN",
    "country_id": 45,
    "country_code": "CN",
    "latitude": "34.36301500",
    "longitude": "108.73251890",
    "wikiDataId": null
  },
  {
    "id": 20215,
    "name": "Weinan",
    "state_id": 2272,
    "state_code": "SN",
    "country_id": 45,
    "country_code": "CN",
    "latitude": "34.51691120",
    "longitude": "109.46432910",
    "wikiDataId": null
  },
  {
    "id": 158769,
    "name": "Weiyang",
    "state_id": 2272,
    "state_code": "SN",
    "country_id": 45,
    "country_code": "CN",
    "latitude": "34.29463580",
    "longitude": "108.94160690",
    "wikiDataId": null
  },
  {
    "id": 158854,
    "name": "Wubu",
    "state_id": 2272,
    "state_code": "SN",
    "country_id": 45,
    "country_code": "CN",
    "latitude": "37.61149600",
    "longitude": "110.68082080",
    "wikiDataId": null
  },
  {
    "id": 158806,
    "name": "Wugong",
    "state_id": 2272,
    "state_code": "SN",
    "country_id": 45,
    "country_code": "CN",
    "latitude": "34.29111100",
    "longitude": "108.17750000",
    "wikiDataId": null
  },
  {
    "id": 158826,
    "name": "Wuqi",
    "state_id": 2272,
    "state_code": "SN",
    "country_id": 45,
    "country_code": "CN",
    "latitude": "36.98250000",
    "longitude": "108.15944400",
    "wikiDataId": null
  },
  {
    "id": 158764,
    "name": "Xi'an",
    "state_id": 2272,
    "state_code": "SN",
    "country_id": 45,
    "country_code": "CN",
    "latitude": "34.26100400",
    "longitude": "108.94233630",
    "wikiDataId": null
  },
  {
    "id": 20329,
    "name": "Xi’an",
    "state_id": 2272,
    "state_code": "SN",
    "country_id": 45,
    "country_code": "CN",
    "latitude": "34.25833000",
    "longitude": "108.92861000",
    "wikiDataId": null
  },
  {
    "id": 20268,
    "name": "Xianyang",
    "state_id": 2272,
    "state_code": "SN",
    "country_id": 45,
    "country_code": "CN",
    "latitude": "34.33232270",
    "longitude": "108.71284950",
    "wikiDataId": null
  },
  {
    "id": 158765,
    "name": "Xincheng",
    "state_id": 2272,
    "state_code": "SN",
    "country_id": 45,
    "country_code": "CN",
    "latitude": "34.27033440",
    "longitude": "108.95560630",
    "wikiDataId": null
  },
  {
    "id": 158807,
    "name": "Xingping",
    "state_id": 2272,
    "state_code": "SN",
    "country_id": 45,
    "country_code": "CN",
    "latitude": "34.29937360",
    "longitude": "108.48305560",
    "wikiDataId": null
  },
  {
    "id": 158838,
    "name": "Xixiang",
    "state_id": 2272,
    "state_code": "SN",
    "country_id": 45,
    "country_code": "CN",
    "latitude": "32.93910000",
    "longitude": "107.70336200",
    "wikiDataId": null
  },
  {
    "id": 158867,
    "name": "Xunyang",
    "state_id": 2272,
    "state_code": "SN",
    "country_id": 45,
    "country_code": "CN",
    "latitude": "32.90638900",
    "longitude": "109.41666700",
    "wikiDataId": null
  },
  {
    "id": 158804,
    "name": "Xunyi",
    "state_id": 2272,
    "state_code": "SN",
    "country_id": 45,
    "country_code": "CN",
    "latitude": "35.18937700",
    "longitude": "108.49346000",
    "wikiDataId": null
  },
  {
    "id": 158820,
    "name": "Yan'an",
    "state_id": 2272,
    "state_code": "SN",
    "country_id": 45,
    "country_code": "CN",
    "latitude": "36.60279600",
    "longitude": "109.48739780",
    "wikiDataId": null
  },
  {
    "id": 158823,
    "name": "Yanchang",
    "state_id": 2272,
    "state_code": "SN",
    "country_id": 45,
    "country_code": "CN",
    "latitude": "36.57944030",
    "longitude": "110.00620220",
    "wikiDataId": null
  },
  {
    "id": 158824,
    "name": "Yanchuan",
    "state_id": 2272,
    "state_code": "SN",
    "country_id": 45,
    "country_code": "CN",
    "latitude": "36.88194400",
    "longitude": "110.02194400",
    "wikiDataId": null
  },
  {
    "id": 158796,
    "name": "Yangling",
    "state_id": 2272,
    "state_code": "SN",
    "country_id": 45,
    "country_code": "CN",
    "latitude": "34.27355880",
    "longitude": "108.08075370",
    "wikiDataId": null
  },
  {
    "id": 158837,
    "name": "Yangxian",
    "state_id": 2272,
    "state_code": "SN",
    "country_id": 45,
    "country_code": "CN",
    "latitude": "33.22747010",
    "longitude": "107.54073580",
    "wikiDataId": null
  },
  {
    "id": 20352,
    "name": "Yanliang",
    "state_id": 2272,
    "state_code": "SN",
    "country_id": 45,
    "country_code": "CN",
    "latitude": "34.65918000",
    "longitude": "109.22921000",
    "wikiDataId": null
  },
  {
    "id": 158771,
    "name": "Yanliang",
    "state_id": 2272,
    "state_code": "SN",
    "country_id": 45,
    "country_code": "CN",
    "latitude": "34.66967810",
    "longitude": "109.22457850",
    "wikiDataId": null
  },
  {
    "id": 158770,
    "name": "Yanta",
    "state_id": 2272,
    "state_code": "SN",
    "country_id": 45,
    "country_code": "CN",
    "latitude": "34.22406810",
    "longitude": "108.94407110",
    "wikiDataId": null
  },
  {
    "id": 158781,
    "name": "Yaozhou",
    "state_id": 2272,
    "state_code": "SN",
    "country_id": 45,
    "country_code": "CN",
    "latitude": "34.91326900",
    "longitude": "108.97147000",
    "wikiDataId": null
  },
  {
    "id": 158830,
    "name": "Yichuan",
    "state_id": 2272,
    "state_code": "SN",
    "country_id": 45,
    "country_code": "CN",
    "latitude": "36.09944400",
    "longitude": "110.12833300",
    "wikiDataId": null
  },
  {
    "id": 158782,
    "name": "Yijun",
    "state_id": 2272,
    "state_code": "SN",
    "country_id": 45,
    "country_code": "CN",
    "latitude": "35.34861100",
    "longitude": "109.16722200",
    "wikiDataId": null
  },
  {
    "id": 158780,
    "name": "Yintai",
    "state_id": 2272,
    "state_code": "SN",
    "country_id": 45,
    "country_code": "CN",
    "latitude": "35.10271100",
    "longitude": "109.09616390",
    "wikiDataId": null
  },
  {
    "id": 158802,
    "name": "Yongshou",
    "state_id": 2272,
    "state_code": "SN",
    "country_id": 45,
    "country_code": "CN",
    "latitude": "34.69187050",
    "longitude": "108.14037990",
    "wikiDataId": null
  },
  {
    "id": 158845,
    "name": "Yulin",
    "state_id": 2272,
    "state_code": "SN",
    "country_id": 45,
    "country_code": "CN",
    "latitude": "38.28516570",
    "longitude": "109.72906190",
    "wikiDataId": null
  },
  {
    "id": 20399,
    "name": "Yulinshi",
    "state_id": 2272,
    "state_code": "SN",
    "country_id": 45,
    "country_code": "CN",
    "latitude": "38.29181000",
    "longitude": "109.73753000",
    "wikiDataId": null
  },
  {
    "id": 20410,
    "name": "Yuxia",
    "state_id": 2272,
    "state_code": "SN",
    "country_id": 45,
    "country_code": "CN",
    "latitude": "34.06153000",
    "longitude": "108.62905000",
    "wikiDataId": null
  },
  {
    "id": 158846,
    "name": "Yuyang",
    "state_id": 2272,
    "state_code": "SN",
    "country_id": 45,
    "country_code": "CN",
    "latitude": "38.27690460",
    "longitude": "109.71554050",
    "wikiDataId": null
  },
  {
    "id": 158875,
    "name": "Zhashui",
    "state_id": 2272,
    "state_code": "SN",
    "country_id": 45,
    "country_code": "CN",
    "latitude": "33.68138900",
    "longitude": "109.27527800",
    "wikiDataId": null
  },
  {
    "id": 158874,
    "name": "Zhen'an",
    "state_id": 2272,
    "state_code": "SN",
    "country_id": 45,
    "country_code": "CN",
    "latitude": "33.38195900",
    "longitude": "109.06843700",
    "wikiDataId": null
  },
  {
    "id": 158842,
    "name": "Zhenba",
    "state_id": 2272,
    "state_code": "SN",
    "country_id": 45,
    "country_code": "CN",
    "latitude": "32.51223320",
    "longitude": "107.86553190",
    "wikiDataId": null
  },
  {
    "id": 158865,
    "name": "Zhenping",
    "state_id": 2272,
    "state_code": "SN",
    "country_id": 45,
    "country_code": "CN",
    "latitude": "31.90888900",
    "longitude": "109.46750000",
    "wikiDataId": null
  },
  {
    "id": 158825,
    "name": "Zhidan",
    "state_id": 2272,
    "state_code": "SN",
    "country_id": 45,
    "country_code": "CN",
    "latitude": "36.78444400",
    "longitude": "108.64000000",
    "wikiDataId": null
  },
  {
    "id": 158777,
    "name": "Zhouzhi",
    "state_id": 2272,
    "state_code": "SN",
    "country_id": 45,
    "country_code": "CN",
    "latitude": "34.16322750",
    "longitude": "108.20406790",
    "wikiDataId": null
  },
  {
    "id": 158833,
    "name": "Zichang",
    "state_id": 2272,
    "state_code": "SN",
    "country_id": 45,
    "country_code": "CN",
    "latitude": "37.14140890",
    "longitude": "109.67040090",
    "wikiDataId": null
  },
  {
    "id": 158862,
    "name": "Ziyang",
    "state_id": 2272,
    "state_code": "SN",
    "country_id": 45,
    "country_code": "CN",
    "latitude": "32.44794000",
    "longitude": "108.43562400",
    "wikiDataId": null
  },
  {
    "id": 158856,
    "name": "Zizhou",
    "state_id": 2272,
    "state_code": "SN",
    "country_id": 45,
    "country_code": "CN",
    "latitude": "37.57888900",
    "longitude": "109.81750000",
    "wikiDataId": null
  }
]