[
  {
    "id": 149149,
    "name": "Bangjun",
    "state_id": 2276,
    "state_code": "TJ",
    "country_id": 45,
    "country_code": "CN",
    "latitude": "39.98839000",
    "longitude": "117.26850000",
    "wikiDataId": null
  },
  {
    "id": 157141,
    "name": "Baodi",
    "state_id": 2276,
    "state_code": "TJ",
    "country_id": 45,
    "country_code": "CN",
    "latitude": "39.59103340",
    "longitude": "117.09706280",
    "wikiDataId": null
  },
  {
    "id": 149150,
    "name": "Beicang",
    "state_id": 2276,
    "state_code": "TJ",
    "country_id": 45,
    "country_code": "CN",
    "latitude": "39.23007000",
    "longitude": "117.11892000",
    "wikiDataId": null
  },
  {
    "id": 157139,
    "name": "Beichen",
    "state_id": 2276,
    "state_code": "TJ",
    "country_id": 45,
    "country_code": "CN",
    "latitude": "39.25478960",
    "longitude": "117.00909800",
    "wikiDataId": null
  },
  {
    "id": 149151,
    "name": "Beihuaidian",
    "state_id": 2276,
    "state_code": "TJ",
    "country_id": 45,
    "country_code": "CN",
    "latitude": "39.26220000",
    "longitude": "117.57485000",
    "wikiDataId": null
  },
  {
    "id": 149152,
    "name": "Beilizigu",
    "state_id": 2276,
    "state_code": "TJ",
    "country_id": 45,
    "country_code": "CN",
    "latitude": "39.49138889",
    "longitude": "117.46500000",
    "wikiDataId": null
  },
  {
    "id": 149153,
    "name": "Biaokou",
    "state_id": 2276,
    "state_code": "TJ",
    "country_id": 45,
    "country_code": "CN",
    "latitude": "39.32950000",
    "longitude": "117.56914000",
    "wikiDataId": null
  },
  {
    "id": 149154,
    "name": "Binhai New Area",
    "state_id": 2276,
    "state_code": "TJ",
    "country_id": 45,
    "country_code": "CN",
    "latitude": "39.00333333",
    "longitude": "117.71083333",
    "wikiDataId": null
  },
  {
    "id": 149155,
    "name": "Caijiapu",
    "state_id": 2276,
    "state_code": "TJ",
    "country_id": 45,
    "country_code": "CN",
    "latitude": "39.17305556",
    "longitude": "117.81055556",
    "wikiDataId": null
  },
  {
    "id": 149156,
    "name": "Caodian",
    "state_id": 2276,
    "state_code": "TJ",
    "country_id": 45,
    "country_code": "CN",
    "latitude": "39.61194444",
    "longitude": "117.47166667",
    "wikiDataId": null
  },
  {
    "id": 149157,
    "name": "Chabaihu",
    "state_id": 2276,
    "state_code": "TJ",
    "country_id": 45,
    "country_code": "CN",
    "latitude": "39.46555556",
    "longitude": "117.14833333",
    "wikiDataId": null
  },
  {
    "id": 149158,
    "name": "Changtun",
    "state_id": 2276,
    "state_code": "TJ",
    "country_id": 45,
    "country_code": "CN",
    "latitude": "39.44333333",
    "longitude": "117.07055556",
    "wikiDataId": null
  },
  {
    "id": 149159,
    "name": "Chengtougu",
    "state_id": 2276,
    "state_code": "TJ",
    "country_id": 45,
    "country_code": "CN",
    "latitude": "39.14000000",
    "longitude": "117.77888889",
    "wikiDataId": null
  },
  {
    "id": 149160,
    "name": "Chitu",
    "state_id": 2276,
    "state_code": "TJ",
    "country_id": 45,
    "country_code": "CN",
    "latitude": "39.20333333",
    "longitude": "117.40277778",
    "wikiDataId": null
  },
  {
    "id": 149161,
    "name": "Cuijiamatou",
    "state_id": 2276,
    "state_code": "TJ",
    "country_id": 45,
    "country_code": "CN",
    "latitude": "39.07472222",
    "longitude": "117.30055556",
    "wikiDataId": null
  },
  {
    "id": 149162,
    "name": "Dadunqiu",
    "state_id": 2276,
    "state_code": "TJ",
    "country_id": 45,
    "country_code": "CN",
    "latitude": "39.40611111",
    "longitude": "117.03305556",
    "wikiDataId": null
  },
  {
    "id": 149163,
    "name": "Dakoutun",
    "state_id": 2276,
    "state_code": "TJ",
    "country_id": 45,
    "country_code": "CN",
    "latitude": "39.58555556",
    "longitude": "117.23638889",
    "wikiDataId": null
  },
  {
    "id": 149164,
    "name": "Dashentang",
    "state_id": 2276,
    "state_code": "TJ",
    "country_id": 45,
    "country_code": "CN",
    "latitude": "39.21722222",
    "longitude": "117.95250000",
    "wikiDataId": null
  },
  {
    "id": 149165,
    "name": "Dawangtai",
    "state_id": 2276,
    "state_code": "TJ",
    "country_id": 45,
    "country_code": "CN",
    "latitude": "39.27500000",
    "longitude": "117.48500000",
    "wikiDataId": null
  },
  {
    "id": 149166,
    "name": "Daxinzhuang",
    "state_id": 2276,
    "state_code": "TJ",
    "country_id": 45,
    "country_code": "CN",
    "latitude": "39.50361111",
    "longitude": "117.68611111",
    "wikiDataId": null
  },
  {
    "id": 149167,
    "name": "Dazhongzhuang",
    "state_id": 2276,
    "state_code": "TJ",
    "country_id": 45,
    "country_code": "CN",
    "latitude": "39.68083333",
    "longitude": "117.56416667",
    "wikiDataId": null
  },
  {
    "id": 149168,
    "name": "Dongditou",
    "state_id": 2276,
    "state_code": "TJ",
    "country_id": 45,
    "country_code": "CN",
    "latitude": "39.26638889",
    "longitude": "117.37277778",
    "wikiDataId": null
  },
  {
    "id": 157136,
    "name": "Dongli",
    "state_id": 2276,
    "state_code": "TJ",
    "country_id": 45,
    "country_code": "CN",
    "latitude": "39.12223530",
    "longitude": "117.23640310",
    "wikiDataId": null
  },
  {
    "id": 149170,
    "name": "Erwangzhuang",
    "state_id": 2276,
    "state_code": "TJ",
    "country_id": 45,
    "country_code": "CN",
    "latitude": "39.39166667",
    "longitude": "117.35388889",
    "wikiDataId": null
  },
  {
    "id": 149172,
    "name": "Fengtai (Ninghe)",
    "state_id": 2276,
    "state_code": "TJ",
    "country_id": 45,
    "country_code": "CN",
    "latitude": "39.55805556",
    "longitude": "117.74916667",
    "wikiDataId": null
  },
  {
    "id": 149174,
    "name": "Gaojingzhuang",
    "state_id": 2276,
    "state_code": "TJ",
    "country_id": 45,
    "country_code": "CN",
    "latitude": "39.41611111",
    "longitude": "117.63000000",
    "wikiDataId": null
  },
  {
    "id": 149175,
    "name": "Hanjiashu",
    "state_id": 2276,
    "state_code": "TJ",
    "country_id": 45,
    "country_code": "CN",
    "latitude": "39.18750000",
    "longitude": "117.07305556",
    "wikiDataId": null
  },
  {
    "id": 157134,
    "name": "Hebei",
    "state_id": 2276,
    "state_code": "TJ",
    "country_id": 45,
    "country_code": "CN",
    "latitude": "39.16184410",
    "longitude": "117.17314050",
    "wikiDataId": null
  },
  {
    "id": 149176,
    "name": "Hebeitun",
    "state_id": 2276,
    "state_code": "TJ",
    "country_id": 45,
    "country_code": "CN",
    "latitude": "39.57472222",
    "longitude": "117.11333333",
    "wikiDataId": null
  },
  {
    "id": 157131,
    "name": "Hedong",
    "state_id": 2276,
    "state_code": "TJ",
    "country_id": 45,
    "country_code": "CN",
    "latitude": "39.12131420",
    "longitude": "117.21622060",
    "wikiDataId": null
  },
  {
    "id": 157130,
    "name": "Heping",
    "state_id": 2276,
    "state_code": "TJ",
    "country_id": 45,
    "country_code": "CN",
    "latitude": "39.11906130",
    "longitude": "117.18028030",
    "wikiDataId": null
  },
  {
    "id": 157132,
    "name": "Hexi",
    "state_id": 2276,
    "state_code": "TJ",
    "country_id": 45,
    "country_code": "CN",
    "latitude": "39.08034920",
    "longitude": "117.19458550",
    "wikiDataId": null
  },
  {
    "id": 149177,
    "name": "Hexiwu",
    "state_id": 2276,
    "state_code": "TJ",
    "country_id": 45,
    "country_code": "CN",
    "latitude": "39.62249000",
    "longitude": "116.95398000",
    "wikiDataId": null
  },
  {
    "id": 157135,
    "name": "Hongqiao",
    "state_id": 2276,
    "state_code": "TJ",
    "country_id": 45,
    "country_code": "CN",
    "latitude": "39.16659920",
    "longitude": "117.11945050",
    "wikiDataId": null
  },
  {
    "id": 149178,
    "name": "Huangcaotuo",
    "state_id": 2276,
    "state_code": "TJ",
    "country_id": 45,
    "country_code": "CN",
    "latitude": "39.17944444",
    "longitude": "117.32166667",
    "wikiDataId": null
  },
  {
    "id": 149179,
    "name": "Huantuo",
    "state_id": 2276,
    "state_code": "TJ",
    "country_id": 45,
    "country_code": "CN",
    "latitude": "39.22638889",
    "longitude": "117.32388889",
    "wikiDataId": null
  },
  {
    "id": 149180,
    "name": "Huogezhuang",
    "state_id": 2276,
    "state_code": "TJ",
    "country_id": 45,
    "country_code": "CN",
    "latitude": "39.74388889",
    "longitude": "117.36750000",
    "wikiDataId": null
  },
  {
    "id": 149181,
    "name": "Jiangwakou",
    "state_id": 2276,
    "state_code": "TJ",
    "country_id": 45,
    "country_code": "CN",
    "latitude": "39.52250000",
    "longitude": "117.70250000",
    "wikiDataId": null
  },
  {
    "id": 157143,
    "name": "Jinghai",
    "state_id": 2276,
    "state_code": "TJ",
    "country_id": 45,
    "country_code": "CN",
    "latitude": "38.83217170",
    "longitude": "116.65375730",
    "wikiDataId": null
  },
  {
    "id": 157138,
    "name": "Jinnan",
    "state_id": 2276,
    "state_code": "TJ",
    "country_id": 45,
    "country_code": "CN",
    "latitude": "38.96061090",
    "longitude": "117.23109810",
    "wikiDataId": null
  },
  {
    "id": 157144,
    "name": "Jizhou",
    "state_id": 2276,
    "state_code": "TJ",
    "country_id": 45,
    "country_code": "CN",
    "latitude": "40.00440910",
    "longitude": "117.13705820",
    "wikiDataId": null
  },
  {
    "id": 149183,
    "name": "Lianzhuang",
    "state_id": 2276,
    "state_code": "TJ",
    "country_id": 45,
    "country_code": "CN",
    "latitude": "39.41000000",
    "longitude": "117.75638889",
    "wikiDataId": null
  },
  {
    "id": 149184,
    "name": "Lintingkou",
    "state_id": 2276,
    "state_code": "TJ",
    "country_id": 45,
    "country_code": "CN",
    "latitude": "39.63027778",
    "longitude": "117.50027778",
    "wikiDataId": null
  },
  {
    "id": 149185,
    "name": "Liujiading",
    "state_id": 2276,
    "state_code": "TJ",
    "country_id": 45,
    "country_code": "CN",
    "latitude": "39.96305556",
    "longitude": "117.19111111",
    "wikiDataId": null
  },
  {
    "id": 149186,
    "name": "Liukuaizhuang",
    "state_id": 2276,
    "state_code": "TJ",
    "country_id": 45,
    "country_code": "CN",
    "latitude": "39.24777778",
    "longitude": "117.33944444",
    "wikiDataId": null
  },
  {
    "id": 149187,
    "name": "Liuzikou",
    "state_id": 2276,
    "state_code": "TJ",
    "country_id": 45,
    "country_code": "CN",
    "latitude": "39.87027778",
    "longitude": "117.34666667",
    "wikiDataId": null
  },
  {
    "id": 149188,
    "name": "Luotuofangzi",
    "state_id": 2276,
    "state_code": "TJ",
    "country_id": 45,
    "country_code": "CN",
    "latitude": "39.08361111",
    "longitude": "117.37694444",
    "wikiDataId": null
  },
  {
    "id": 149189,
    "name": "Meichang",
    "state_id": 2276,
    "state_code": "TJ",
    "country_id": 45,
    "country_code": "CN",
    "latitude": "39.36611111",
    "longitude": "117.18055556",
    "wikiDataId": null
  },
  {
    "id": 149190,
    "name": "Mengquan",
    "state_id": 2276,
    "state_code": "TJ",
    "country_id": 45,
    "country_code": "CN",
    "latitude": "39.82527778",
    "longitude": "117.47666667",
    "wikiDataId": null
  },
  {
    "id": 157133,
    "name": "Nankai",
    "state_id": 2276,
    "state_code": "TJ",
    "country_id": 45,
    "country_code": "CN",
    "latitude": "39.10652430",
    "longitude": "117.11158550",
    "wikiDataId": null
  },
  {
    "id": 157142,
    "name": "Ninghe",
    "state_id": 2276,
    "state_code": "TJ",
    "country_id": 45,
    "country_code": "CN",
    "latitude": "39.38544560",
    "longitude": "117.29866270",
    "wikiDataId": null
  },
  {
    "id": 149192,
    "name": "Qingguang",
    "state_id": 2276,
    "state_code": "TJ",
    "country_id": 45,
    "country_code": "CN",
    "latitude": "39.19668000",
    "longitude": "117.05475000",
    "wikiDataId": null
  },
  {
    "id": 149193,
    "name": "Sangzi",
    "state_id": 2276,
    "state_code": "TJ",
    "country_id": 45,
    "country_code": "CN",
    "latitude": "39.90853000",
    "longitude": "117.16535000",
    "wikiDataId": null
  },
  {
    "id": 149195,
    "name": "Shimianzhuang",
    "state_id": 2276,
    "state_code": "TJ",
    "country_id": 45,
    "country_code": "CN",
    "latitude": "39.41800000",
    "longitude": "117.15690000",
    "wikiDataId": null
  },
  {
    "id": 149197,
    "name": "Sigaozhuang",
    "state_id": 2276,
    "state_code": "TJ",
    "country_id": 45,
    "country_code": "CN",
    "latitude": "39.46713000",
    "longitude": "117.25554000",
    "wikiDataId": null
  },
  {
    "id": 149200,
    "name": "Wangqinzhuang",
    "state_id": 2276,
    "state_code": "TJ",
    "country_id": 45,
    "country_code": "CN",
    "latitude": "39.22942000",
    "longitude": "117.08968000",
    "wikiDataId": null
  },
  {
    "id": 157140,
    "name": "Wuqing",
    "state_id": 2276,
    "state_code": "TJ",
    "country_id": 45,
    "country_code": "CN",
    "latitude": "39.41238530",
    "longitude": "116.73242260",
    "wikiDataId": null
  },
  {
    "id": 149202,
    "name": "Xiawuqi",
    "state_id": 2276,
    "state_code": "TJ",
    "country_id": 45,
    "country_code": "CN",
    "latitude": "39.61551000",
    "longitude": "117.05523000",
    "wikiDataId": null
  },
  {
    "id": 149203,
    "name": "Xiditou",
    "state_id": 2276,
    "state_code": "TJ",
    "country_id": 45,
    "country_code": "CN",
    "latitude": "39.25320000",
    "longitude": "117.34709000",
    "wikiDataId": null
  },
  {
    "id": 149204,
    "name": "Xinkaikou",
    "state_id": 2276,
    "state_code": "TJ",
    "country_id": 45,
    "country_code": "CN",
    "latitude": "39.67996000",
    "longitude": "117.18877000",
    "wikiDataId": null
  },
  {
    "id": 157137,
    "name": "Xiqing",
    "state_id": 2276,
    "state_code": "TJ",
    "country_id": 45,
    "country_code": "CN",
    "latitude": "39.00003580",
    "longitude": "116.94875310",
    "wikiDataId": null
  },
  {
    "id": 149205,
    "name": "Xitazhuang",
    "state_id": 2276,
    "state_code": "TJ",
    "country_id": 45,
    "country_code": "CN",
    "latitude": "39.93306000",
    "longitude": "117.21083000",
    "wikiDataId": null
  },
  {
    "id": 149206,
    "name": "Yangjinzhuang",
    "state_id": 2276,
    "state_code": "TJ",
    "country_id": 45,
    "country_code": "CN",
    "latitude": "39.86645000",
    "longitude": "117.42592000",
    "wikiDataId": null
  },
  {
    "id": 149207,
    "name": "Yangliuqing",
    "state_id": 2276,
    "state_code": "TJ",
    "country_id": 45,
    "country_code": "CN",
    "latitude": "39.12740000",
    "longitude": "117.00885000",
    "wikiDataId": null
  },
  {
    "id": 149208,
    "name": "Yinliu",
    "state_id": 2276,
    "state_code": "TJ",
    "country_id": 45,
    "country_code": "CN",
    "latitude": "39.98349000",
    "longitude": "117.39904000",
    "wikiDataId": null
  },
  {
    "id": 149209,
    "name": "Yixingfu",
    "state_id": 2276,
    "state_code": "TJ",
    "country_id": 45,
    "country_code": "CN",
    "latitude": "39.19917000",
    "longitude": "117.21139000",
    "wikiDataId": null
  },
  {
    "id": 149210,
    "name": "Youguzhuang",
    "state_id": 2276,
    "state_code": "TJ",
    "country_id": 45,
    "country_code": "CN",
    "latitude": "39.90802000",
    "longitude": "117.24576000",
    "wikiDataId": null
  },
  {
    "id": 149212,
    "name": "Yuguzhuang",
    "state_id": 2276,
    "state_code": "TJ",
    "country_id": 45,
    "country_code": "CN",
    "latitude": "39.64290000",
    "longitude": "117.36470000",
    "wikiDataId": null
  },
  {
    "id": 149213,
    "name": "Zaojiacheng",
    "state_id": 2276,
    "state_code": "TJ",
    "country_id": 45,
    "country_code": "CN",
    "latitude": "39.28174000",
    "longitude": "117.42516000",
    "wikiDataId": null
  },
  {
    "id": 149182,
    "name": "Zhangjiawo",
    "state_id": 2276,
    "state_code": "TJ",
    "country_id": 45,
    "country_code": "CN",
    "latitude": "39.05675000",
    "longitude": "117.03624000",
    "wikiDataId": null
  },
  {
    "id": 149214,
    "name": "Zhaoguli",
    "state_id": 2276,
    "state_code": "TJ",
    "country_id": 45,
    "country_code": "CN",
    "latitude": "39.16673000",
    "longitude": "117.24191000",
    "wikiDataId": null
  }
]