[
  {
    "id": 157614,
    "name": "Anlong",
    "state_id": 2261,
    "state_code": "GZ",
    "country_id": 45,
    "country_code": "CN",
    "latitude": "25.21091360",
    "longitude": "105.31494960",
    "wikiDataId": null
  },
  {
    "id": 19288,
    "name": "Anshun",
    "state_id": 2261,
    "state_code": "GZ",
    "country_id": 45,
    "country_code": "CN",
    "latitude": "26.25491100",
    "longitude": "105.94377730",
    "wikiDataId": null
  },
  {
    "id": 19292,
    "name": "Aoshi",
    "state_id": 2261,
    "state_code": "GZ",
    "country_id": 45,
    "country_code": "CN",
    "latitude": "26.40167000",
    "longitude": "109.07111000",
    "wikiDataId": null
  },
  {
    "id": 19297,
    "name": "Bahuang",
    "state_id": 2261,
    "state_code": "GZ",
    "country_id": 45,
    "country_code": "CN",
    "latitude": "27.71806000",
    "longitude": "109.01889000",
    "wikiDataId": null
  },
  {
    "id": 19307,
    "name": "Baishi",
    "state_id": 2261,
    "state_code": "GZ",
    "country_id": 45,
    "country_code": "CN",
    "latitude": "26.97361000",
    "longitude": "109.44333000",
    "wikiDataId": null
  },
  {
    "id": 157558,
    "name": "Baiyun",
    "state_id": 2261,
    "state_code": "GZ",
    "country_id": 45,
    "country_code": "CN",
    "latitude": "26.73832990",
    "longitude": "106.67560830",
    "wikiDataId": null
  },
  {
    "id": 19313,
    "name": "Bangdong",
    "state_id": 2261,
    "state_code": "GZ",
    "country_id": 45,
    "country_code": "CN",
    "latitude": "26.97556000",
    "longitude": "109.18583000",
    "wikiDataId": null
  },
  {
    "id": 19337,
    "name": "Benchu",
    "state_id": 2261,
    "state_code": "GZ",
    "country_id": 45,
    "country_code": "CN",
    "latitude": "26.77111000",
    "longitude": "109.29056000",
    "wikiDataId": null
  },
  {
    "id": 157596,
    "name": "Bijiang",
    "state_id": 2261,
    "state_code": "GZ",
    "country_id": 45,
    "country_code": "CN",
    "latitude": "27.81826430",
    "longitude": "109.26091120",
    "wikiDataId": null
  },
  {
    "id": 19341,
    "name": "Bijie",
    "state_id": 2261,
    "state_code": "GZ",
    "country_id": 45,
    "country_code": "CN",
    "latitude": "27.21500320",
    "longitude": "105.21516600",
    "wikiDataId": null
  },
  {
    "id": 157570,
    "name": "Bozhou",
    "state_id": 2261,
    "state_code": "GZ",
    "country_id": 45,
    "country_code": "CN",
    "latitude": "27.53963160",
    "longitude": "106.82144130",
    "wikiDataId": null
  },
  {
    "id": 157613,
    "name": "Ceheng",
    "state_id": 2261,
    "state_code": "GZ",
    "country_id": 45,
    "country_code": "CN",
    "latitude": "24.96433000",
    "longitude": "105.79430000",
    "wikiDataId": null
  },
  {
    "id": 157621,
    "name": "Cengong",
    "state_id": 2261,
    "state_code": "GZ",
    "country_id": 45,
    "country_code": "CN",
    "latitude": "27.35551000",
    "longitude": "108.69193000",
    "wikiDataId": null
  },
  {
    "id": 19360,
    "name": "Chadian",
    "state_id": 2261,
    "state_code": "GZ",
    "country_id": 45,
    "country_code": "CN",
    "latitude": "27.58194000",
    "longitude": "109.13278000",
    "wikiDataId": null
  },
  {
    "id": 19373,
    "name": "Changsha",
    "state_id": 2261,
    "state_code": "GZ",
    "country_id": 45,
    "country_code": "CN",
    "latitude": "28.68778000",
    "longitude": "105.98972000",
    "wikiDataId": null
  },
  {
    "id": 157641,
    "name": "Changshun",
    "state_id": 2261,
    "state_code": "GZ",
    "country_id": 45,
    "country_code": "CN",
    "latitude": "25.99869510",
    "longitude": "106.38061260",
    "wikiDataId": null
  },
  {
    "id": 157580,
    "name": "Chishui",
    "state_id": 2261,
    "state_code": "GZ",
    "country_id": 45,
    "country_code": "CN",
    "latitude": "28.48770930",
    "longitude": "105.90950810",
    "wikiDataId": null
  },
  {
    "id": 19408,
    "name": "Chumi",
    "state_id": 2261,
    "state_code": "GZ",
    "country_id": 45,
    "country_code": "CN",
    "latitude": "28.23361000",
    "longitude": "106.83278000",
    "wikiDataId": null
  },
  {
    "id": 157628,
    "name": "Congjiang",
    "state_id": 2261,
    "state_code": "GZ",
    "country_id": 45,
    "country_code": "CN",
    "latitude": "25.74666150",
    "longitude": "108.72771420",
    "wikiDataId": null
  },
  {
    "id": 19412,
    "name": "Dabachang",
    "state_id": 2261,
    "state_code": "GZ",
    "country_id": 45,
    "country_code": "CN",
    "latitude": "27.74250000",
    "longitude": "108.34333000",
    "wikiDataId": null
  },
  {
    "id": 157589,
    "name": "Dafang",
    "state_id": 2261,
    "state_code": "GZ",
    "country_id": 45,
    "country_code": "CN",
    "latitude": "27.28513200",
    "longitude": "105.66412500",
    "wikiDataId": null
  },
  {
    "id": 157631,
    "name": "Danzhai",
    "state_id": 2261,
    "state_code": "GZ",
    "country_id": 45,
    "country_code": "CN",
    "latitude": "26.24418700",
    "longitude": "107.89515500",
    "wikiDataId": null
  },
  {
    "id": 157574,
    "name": "Daozhen",
    "state_id": 2261,
    "state_code": "GZ",
    "country_id": 45,
    "country_code": "CN",
    "latitude": "28.86950650",
    "longitude": "107.60693940",
    "wikiDataId": null
  },
  {
    "id": 19431,
    "name": "Darong",
    "state_id": 2261,
    "state_code": "GZ",
    "country_id": 45,
    "country_code": "CN",
    "latitude": "25.78500000",
    "longitude": "108.86400000",
    "wikiDataId": null
  },
  {
    "id": 157603,
    "name": "Dejiang",
    "state_id": 2261,
    "state_code": "GZ",
    "country_id": 45,
    "country_code": "CN",
    "latitude": "28.26643030",
    "longitude": "108.11146950",
    "wikiDataId": null
  },
  {
    "id": 19484,
    "name": "Dundong",
    "state_id": 2261,
    "state_code": "GZ",
    "country_id": 45,
    "country_code": "CN",
    "latitude": "26.01190000",
    "longitude": "109.14100000",
    "wikiDataId": null
  },
  {
    "id": 157638,
    "name": "Dushan",
    "state_id": 2261,
    "state_code": "GZ",
    "country_id": 45,
    "country_code": "CN",
    "latitude": "25.72619060",
    "longitude": "107.56655580",
    "wikiDataId": null
  },
  {
    "id": 19487,
    "name": "Duyun",
    "state_id": 2261,
    "state_code": "GZ",
    "country_id": 45,
    "country_code": "CN",
    "latitude": "26.26667000",
    "longitude": "107.51667000",
    "wikiDataId": null
  },
  {
    "id": 157633,
    "name": "Duyun",
    "state_id": 2261,
    "state_code": "GZ",
    "country_id": 45,
    "country_code": "CN",
    "latitude": "26.19086790",
    "longitude": "107.45262390",
    "wikiDataId": null
  },
  {
    "id": 149171,
    "name": "Fanzhuang",
    "state_id": 2261,
    "state_code": "GZ",
    "country_id": 45,
    "country_code": "CN",
    "latitude": "39.19361111",
    "longitude": "117.33500000",
    "wikiDataId": null
  },
  {
    "id": 157576,
    "name": "Fenggang",
    "state_id": 2261,
    "state_code": "GZ",
    "country_id": 45,
    "country_code": "CN",
    "latitude": "27.93280200",
    "longitude": "107.77975700",
    "wikiDataId": null
  },
  {
    "id": 157634,
    "name": "Fuquan",
    "state_id": 2261,
    "state_code": "GZ",
    "country_id": 45,
    "country_code": "CN",
    "latitude": "26.80680330",
    "longitude": "107.45656210",
    "wikiDataId": null
  },
  {
    "id": 19542,
    "name": "Gaoniang",
    "state_id": 2261,
    "state_code": "GZ",
    "country_id": 45,
    "country_code": "CN",
    "latitude": "26.84250000",
    "longitude": "109.17889000",
    "wikiDataId": null
  },
  {
    "id": 19545,
    "name": "Gaowu",
    "state_id": 2261,
    "state_code": "GZ",
    "country_id": 45,
    "country_code": "CN",
    "latitude": "25.56250000",
    "longitude": "108.90800000",
    "wikiDataId": null
  },
  {
    "id": 19549,
    "name": "Gaozeng",
    "state_id": 2261,
    "state_code": "GZ",
    "country_id": 45,
    "country_code": "CN",
    "latitude": "25.80167000",
    "longitude": "108.93750000",
    "wikiDataId": null
  },
  {
    "id": 19558,
    "name": "Guandu",
    "state_id": 2261,
    "state_code": "GZ",
    "country_id": 45,
    "country_code": "CN",
    "latitude": "28.56833000",
    "longitude": "106.10255000",
    "wikiDataId": null
  },
  {
    "id": 157586,
    "name": "Guanling",
    "state_id": 2261,
    "state_code": "GZ",
    "country_id": 45,
    "country_code": "CN",
    "latitude": "25.94819910",
    "longitude": "105.63195330",
    "wikiDataId": null
  },
  {
    "id": 157559,
    "name": "Guanshanhu",
    "state_id": 2261,
    "state_code": "GZ",
    "country_id": 45,
    "country_code": "CN",
    "latitude": "26.61961310",
    "longitude": "106.59503800",
    "wikiDataId": null
  },
  {
    "id": 157636,
    "name": "Guiding",
    "state_id": 2261,
    "state_code": "GZ",
    "country_id": 45,
    "country_code": "CN",
    "latitude": "26.39759000",
    "longitude": "107.18741100",
    "wikiDataId": null
  },
  {
    "id": 19575,
    "name": "Guiyang",
    "state_id": 2261,
    "state_code": "GZ",
    "country_id": 45,
    "country_code": "CN",
    "latitude": "26.64999220",
    "longitude": "106.62461780",
    "wikiDataId": null
  },
  {
    "id": 157594,
    "name": "Hezhang",
    "state_id": 2261,
    "state_code": "GZ",
    "country_id": 45,
    "country_code": "CN",
    "latitude": "27.19285900",
    "longitude": "104.63035400",
    "wikiDataId": null
  },
  {
    "id": 157568,
    "name": "Honghuagang",
    "state_id": 2261,
    "state_code": "GZ",
    "country_id": 45,
    "country_code": "CN",
    "latitude": "27.65008120",
    "longitude": "106.89422540",
    "wikiDataId": null
  },
  {
    "id": 157617,
    "name": "Huangping",
    "state_id": 2261,
    "state_code": "GZ",
    "country_id": 45,
    "country_code": "CN",
    "latitude": "26.95357500",
    "longitude": "107.84583400",
    "wikiDataId": null
  },
  {
    "id": 19666,
    "name": "Huaqiu",
    "state_id": 2261,
    "state_code": "GZ",
    "country_id": 45,
    "country_code": "CN",
    "latitude": "28.11665000",
    "longitude": "106.60225000",
    "wikiDataId": null
  },
  {
    "id": 157556,
    "name": "Huaxi",
    "state_id": 2261,
    "state_code": "GZ",
    "country_id": 45,
    "country_code": "CN",
    "latitude": "26.43881200",
    "longitude": "106.65762300",
    "wikiDataId": null
  },
  {
    "id": 157569,
    "name": "Huichuan",
    "state_id": 2261,
    "state_code": "GZ",
    "country_id": 45,
    "country_code": "CN",
    "latitude": "27.75349800",
    "longitude": "106.93007320",
    "wikiDataId": null
  },
  {
    "id": 157643,
    "name": "Huishui",
    "state_id": 2261,
    "state_code": "GZ",
    "country_id": 45,
    "country_code": "CN",
    "latitude": "26.01967560",
    "longitude": "106.74305030",
    "wikiDataId": null
  },
  {
    "id": 157598,
    "name": "Jiangkou",
    "state_id": 2261,
    "state_code": "GZ",
    "country_id": 45,
    "country_code": "CN",
    "latitude": "27.80367820",
    "longitude": "108.76890720",
    "wikiDataId": null
  },
  {
    "id": 157624,
    "name": "Jianhe",
    "state_id": 2261,
    "state_code": "GZ",
    "country_id": 45,
    "country_code": "CN",
    "latitude": "26.67391420",
    "longitude": "108.68562160",
    "wikiDataId": null
  },
  {
    "id": 157623,
    "name": "Jinping",
    "state_id": 2261,
    "state_code": "GZ",
    "country_id": 45,
    "country_code": "CN",
    "latitude": "26.67746410",
    "longitude": "109.19385750",
    "wikiDataId": null
  },
  {
    "id": 157590,
    "name": "Jinsha",
    "state_id": 2261,
    "state_code": "GZ",
    "country_id": 45,
    "country_code": "CN",
    "latitude": "27.45860130",
    "longitude": "106.27213650",
    "wikiDataId": null
  },
  {
    "id": 157616,
    "name": "Kaili",
    "state_id": 2261,
    "state_code": "GZ",
    "country_id": 45,
    "country_code": "CN",
    "latitude": "26.64678000",
    "longitude": "107.95061900",
    "wikiDataId": null
  },
  {
    "id": 157560,
    "name": "Kaiyang",
    "state_id": 2261,
    "state_code": "GZ",
    "country_id": 45,
    "country_code": "CN",
    "latitude": "27.10371400",
    "longitude": "107.00755700",
    "wikiDataId": null
  },
  {
    "id": 19800,
    "name": "Lantian",
    "state_id": 2261,
    "state_code": "GZ",
    "country_id": 45,
    "country_code": "CN",
    "latitude": "27.02500000",
    "longitude": "109.29472000",
    "wikiDataId": null
  },
  {
    "id": 157629,
    "name": "Leishan",
    "state_id": 2261,
    "state_code": "GZ",
    "country_id": 45,
    "country_code": "CN",
    "latitude": "26.38254390",
    "longitude": "108.07530690",
    "wikiDataId": null
  },
  {
    "id": 19813,
    "name": "Liangcunchang",
    "state_id": 2261,
    "state_code": "GZ",
    "country_id": 45,
    "country_code": "CN",
    "latitude": "28.40667000",
    "longitude": "106.42444000",
    "wikiDataId": null
  },
  {
    "id": 157635,
    "name": "Libo",
    "state_id": 2261,
    "state_code": "GZ",
    "country_id": 45,
    "country_code": "CN",
    "latitude": "25.42702510",
    "longitude": "107.89494590",
    "wikiDataId": null
  },
  {
    "id": 157626,
    "name": "Liping",
    "state_id": 2261,
    "state_code": "GZ",
    "country_id": 45,
    "country_code": "CN",
    "latitude": "26.20599700",
    "longitude": "109.03934500",
    "wikiDataId": null
  },
  {
    "id": 19861,
    "name": "Liupanshui",
    "state_id": 2261,
    "state_code": "GZ",
    "country_id": 45,
    "country_code": "CN",
    "latitude": "26.59637780",
    "longitude": "104.82796520",
    "wikiDataId": null
  },
  {
    "id": 157565,
    "name": "Liuzhi Special",
    "state_id": 2261,
    "state_code": "GZ",
    "country_id": 45,
    "country_code": "CN",
    "latitude": "26.30624700",
    "longitude": "105.32350700",
    "wikiDataId": null
  },
  {
    "id": 157642,
    "name": "Longli",
    "state_id": 2261,
    "state_code": "GZ",
    "country_id": 45,
    "country_code": "CN",
    "latitude": "26.51629600",
    "longitude": "106.95464400",
    "wikiDataId": null
  },
  {
    "id": 19869,
    "name": "Longlisuo",
    "state_id": 2261,
    "state_code": "GZ",
    "country_id": 45,
    "country_code": "CN",
    "latitude": "26.41417000",
    "longitude": "109.10222000",
    "wikiDataId": null
  },
  {
    "id": 19877,
    "name": "Loushanguan",
    "state_id": 2261,
    "state_code": "GZ",
    "country_id": 45,
    "country_code": "CN",
    "latitude": "28.13680000",
    "longitude": "106.82200000",
    "wikiDataId": null
  },
  {
    "id": 157640,
    "name": "Luodian",
    "state_id": 2261,
    "state_code": "GZ",
    "country_id": 45,
    "country_code": "CN",
    "latitude": "25.48333300",
    "longitude": "106.65000000",
    "wikiDataId": null
  },
  {
    "id": 157630,
    "name": "Majiang",
    "state_id": 2261,
    "state_code": "GZ",
    "country_id": 45,
    "country_code": "CN",
    "latitude": "26.46060100",
    "longitude": "107.64366700",
    "wikiDataId": null
  },
  {
    "id": 19906,
    "name": "Maoping",
    "state_id": 2261,
    "state_code": "GZ",
    "country_id": 45,
    "country_code": "CN",
    "latitude": "26.73694000",
    "longitude": "109.22111000",
    "wikiDataId": null
  },
  {
    "id": 157577,
    "name": "Meitan",
    "state_id": 2261,
    "state_code": "GZ",
    "country_id": 45,
    "country_code": "CN",
    "latitude": "27.73794050",
    "longitude": "107.50683230",
    "wikiDataId": null
  },
  {
    "id": 157554,
    "name": "Nanming",
    "state_id": 2261,
    "state_code": "GZ",
    "country_id": 45,
    "country_code": "CN",
    "latitude": "26.57225450",
    "longitude": "106.70505490",
    "wikiDataId": null
  },
  {
    "id": 157592,
    "name": "Nayong",
    "state_id": 2261,
    "state_code": "GZ",
    "country_id": 45,
    "country_code": "CN",
    "latitude": "26.85914540",
    "longitude": "105.25391110",
    "wikiDataId": null
  },
  {
    "id": 19970,
    "name": "Ouyang",
    "state_id": 2261,
    "state_code": "GZ",
    "country_id": 45,
    "country_code": "CN",
    "latitude": "26.41910000",
    "longitude": "109.21600000",
    "wikiDataId": null
  },
  {
    "id": 157567,
    "name": "Panzhou",
    "state_id": 2261,
    "state_code": "GZ",
    "country_id": 45,
    "country_code": "CN",
    "latitude": "25.86780000",
    "longitude": "104.60310000",
    "wikiDataId": null
  },
  {
    "id": 157583,
    "name": "Pingba",
    "state_id": 2261,
    "state_code": "GZ",
    "country_id": 45,
    "country_code": "CN",
    "latitude": "26.41008580",
    "longitude": "106.25327110",
    "wikiDataId": null
  },
  {
    "id": 19979,
    "name": "Pingjiang",
    "state_id": 2261,
    "state_code": "GZ",
    "country_id": 45,
    "country_code": "CN",
    "latitude": "25.97056000",
    "longitude": "108.39528000",
    "wikiDataId": null
  },
  {
    "id": 157639,
    "name": "Pingtang",
    "state_id": 2261,
    "state_code": "GZ",
    "country_id": 45,
    "country_code": "CN",
    "latitude": "25.80101700",
    "longitude": "107.20926600",
    "wikiDataId": null
  },
  {
    "id": 157609,
    "name": "Pu'an",
    "state_id": 2261,
    "state_code": "GZ",
    "country_id": 45,
    "country_code": "CN",
    "latitude": "25.76022130",
    "longitude": "104.98559730",
    "wikiDataId": null
  },
  {
    "id": 157584,
    "name": "Puding",
    "state_id": 2261,
    "state_code": "GZ",
    "country_id": 45,
    "country_code": "CN",
    "latitude": "26.37689290",
    "longitude": "105.73386790",
    "wikiDataId": null
  },
  {
    "id": 157615,
    "name": "Qiandongnan",
    "state_id": 2261,
    "state_code": "GZ",
    "country_id": 45,
    "country_code": "CN",
    "latitude": "26.58708830",
    "longitude": "107.97874800",
    "wikiDataId": null
  },
  {
    "id": 20007,
    "name": "Qiandongnan Miao and Dong Autonomous",
    "state_id": 2261,
    "state_code": "GZ",
    "country_id": 45,
    "country_code": "CN",
    "latitude": "26.57380000",
    "longitude": "108.59914000",
    "wikiDataId": null
  },
  {
    "id": 157632,
    "name": "Qiannan",
    "state_id": 2261,
    "state_code": "GZ",
    "country_id": 45,
    "country_code": "CN",
    "latitude": "26.25701100",
    "longitude": "107.51803390",
    "wikiDataId": null
  },
  {
    "id": 157595,
    "name": "Qianxi",
    "state_id": 2261,
    "state_code": "GZ",
    "country_id": 45,
    "country_code": "CN",
    "latitude": "27.08807400",
    "longitude": "106.10515800",
    "wikiDataId": null
  },
  {
    "id": 157606,
    "name": "Qianxinan",
    "state_id": 2261,
    "state_code": "GZ",
    "country_id": 45,
    "country_code": "CN",
    "latitude": "25.09253810",
    "longitude": "104.90192050",
    "wikiDataId": null
  },
  {
    "id": 20009,
    "name": "Qianxinan Bouyeizu Miaozu Zizhizhou",
    "state_id": 2261,
    "state_code": "GZ",
    "country_id": 45,
    "country_code": "CN",
    "latitude": "25.38808000",
    "longitude": "105.38740000",
    "wikiDataId": null
  },
  {
    "id": 20014,
    "name": "Qimeng",
    "state_id": 2261,
    "state_code": "GZ",
    "country_id": 45,
    "country_code": "CN",
    "latitude": "26.48472000",
    "longitude": "108.99944000",
    "wikiDataId": null
  },
  {
    "id": 20019,
    "name": "Qinglang",
    "state_id": 2261,
    "state_code": "GZ",
    "country_id": 45,
    "country_code": "CN",
    "latitude": "27.12472000",
    "longitude": "108.73278000",
    "wikiDataId": null
  },
  {
    "id": 157610,
    "name": "Qinglong",
    "state_id": 2261,
    "state_code": "GZ",
    "country_id": 45,
    "country_code": "CN",
    "latitude": "25.83772860",
    "longitude": "105.21593920",
    "wikiDataId": null
  },
  {
    "id": 157563,
    "name": "Qingzhen",
    "state_id": 2261,
    "state_code": "GZ",
    "country_id": 45,
    "country_code": "CN",
    "latitude": "26.73266600",
    "longitude": "106.34832300",
    "wikiDataId": null
  },
  {
    "id": 157588,
    "name": "Qixingguan",
    "state_id": 2261,
    "state_code": "GZ",
    "country_id": 45,
    "country_code": "CN",
    "latitude": "27.30162170",
    "longitude": "105.30189500",
    "wikiDataId": null
  },
  {
    "id": 157581,
    "name": "Renhuai",
    "state_id": 2261,
    "state_code": "GZ",
    "country_id": 45,
    "country_code": "CN",
    "latitude": "27.88568800",
    "longitude": "106.44453500",
    "wikiDataId": null
  },
  {
    "id": 157627,
    "name": "Rongjiang",
    "state_id": 2261,
    "state_code": "GZ",
    "country_id": 45,
    "country_code": "CN",
    "latitude": "26.08585500",
    "longitude": "108.45054300",
    "wikiDataId": null
  },
  {
    "id": 20046,
    "name": "Runsong",
    "state_id": 2261,
    "state_code": "GZ",
    "country_id": 45,
    "country_code": "CN",
    "latitude": "26.87000000",
    "longitude": "109.09700000",
    "wikiDataId": null
  },
  {
    "id": 20051,
    "name": "Sanchahe",
    "state_id": 2261,
    "state_code": "GZ",
    "country_id": 45,
    "country_code": "CN",
    "latitude": "28.49528000",
    "longitude": "106.42833000",
    "wikiDataId": null
  },
  {
    "id": 157644,
    "name": "Sandu",
    "state_id": 2261,
    "state_code": "GZ",
    "country_id": 45,
    "country_code": "CN",
    "latitude": "25.90445000",
    "longitude": "107.95100300",
    "wikiDataId": null
  },
  {
    "id": 20053,
    "name": "Sangmu",
    "state_id": 2261,
    "state_code": "GZ",
    "country_id": 45,
    "country_code": "CN",
    "latitude": "28.21528000",
    "longitude": "106.26889000",
    "wikiDataId": null
  },
  {
    "id": 157619,
    "name": "Sansui",
    "state_id": 2261,
    "state_code": "GZ",
    "country_id": 45,
    "country_code": "CN",
    "latitude": "26.96073440",
    "longitude": "108.75165500",
    "wikiDataId": null
  },
  {
    "id": 157618,
    "name": "Shibing",
    "state_id": 2261,
    "state_code": "GZ",
    "country_id": 45,
    "country_code": "CN",
    "latitude": "27.08501210",
    "longitude": "108.11144950",
    "wikiDataId": null
  },
  {
    "id": 20104,
    "name": "Shiqian",
    "state_id": 2261,
    "state_code": "GZ",
    "country_id": 45,
    "country_code": "CN",
    "latitude": "27.52250000",
    "longitude": "108.22806000",
    "wikiDataId": null
  },
  {
    "id": 157600,
    "name": "Shiqian",
    "state_id": 2261,
    "state_code": "GZ",
    "country_id": 45,
    "country_code": "CN",
    "latitude": "27.50965130",
    "longitude": "108.21485460",
    "wikiDataId": null
  },
  {
    "id": 157566,
    "name": "Shuicheng",
    "state_id": 2261,
    "state_code": "GZ",
    "country_id": 45,
    "country_code": "CN",
    "latitude": "26.55116130",
    "longitude": "104.95511670",
    "wikiDataId": null
  },
  {
    "id": 157601,
    "name": "Sinan",
    "state_id": 2261,
    "state_code": "GZ",
    "country_id": 45,
    "country_code": "CN",
    "latitude": "27.89540710",
    "longitude": "108.11308600",
    "wikiDataId": null
  },
  {
    "id": 20134,
    "name": "Songkan",
    "state_id": 2261,
    "state_code": "GZ",
    "country_id": 45,
    "country_code": "CN",
    "latitude": "28.54972000",
    "longitude": "106.85972000",
    "wikiDataId": null
  },
  {
    "id": 157605,
    "name": "Songtao",
    "state_id": 2261,
    "state_code": "GZ",
    "country_id": 45,
    "country_code": "CN",
    "latitude": "28.15852240",
    "longitude": "109.19818040",
    "wikiDataId": null
  },
  {
    "id": 157572,
    "name": "Suiyang",
    "state_id": 2261,
    "state_code": "GZ",
    "country_id": 45,
    "country_code": "CN",
    "latitude": "28.09506200",
    "longitude": "107.23237500",
    "wikiDataId": null
  },
  {
    "id": 157625,
    "name": "Taijiang",
    "state_id": 2261,
    "state_code": "GZ",
    "country_id": 45,
    "country_code": "CN",
    "latitude": "26.60950600",
    "longitude": "108.31814700",
    "wikiDataId": null
  },
  {
    "id": 157622,
    "name": "Tianzhu",
    "state_id": 2261,
    "state_code": "GZ",
    "country_id": 45,
    "country_code": "CN",
    "latitude": "26.93174640",
    "longitude": "109.26198740",
    "wikiDataId": null
  },
  {
    "id": 20185,
    "name": "Tingdong",
    "state_id": 2261,
    "state_code": "GZ",
    "country_id": 45,
    "country_code": "CN",
    "latitude": "25.82444000",
    "longitude": "108.61250000",
    "wikiDataId": null
  },
  {
    "id": 20189,
    "name": "Tonggu",
    "state_id": 2261,
    "state_code": "GZ",
    "country_id": 45,
    "country_code": "CN",
    "latitude": "26.57222000",
    "longitude": "109.30944000",
    "wikiDataId": null
  },
  {
    "id": 20193,
    "name": "Tongren",
    "state_id": 2261,
    "state_code": "GZ",
    "country_id": 45,
    "country_code": "CN",
    "latitude": "27.95293800",
    "longitude": "108.58401800",
    "wikiDataId": null
  },
  {
    "id": 20194,
    "name": "Tongren Diqu",
    "state_id": 2261,
    "state_code": "GZ",
    "country_id": 45,
    "country_code": "CN",
    "latitude": "27.74188000",
    "longitude": "109.19312000",
    "wikiDataId": null
  },
  {
    "id": 157571,
    "name": "Tongzi",
    "state_id": 2261,
    "state_code": "GZ",
    "country_id": 45,
    "country_code": "CN",
    "latitude": "28.41899820",
    "longitude": "106.87225900",
    "wikiDataId": null
  },
  {
    "id": 157612,
    "name": "Wangmo",
    "state_id": 2261,
    "state_code": "GZ",
    "country_id": 45,
    "country_code": "CN",
    "latitude": "25.17756630",
    "longitude": "106.09080810",
    "wikiDataId": null
  },
  {
    "id": 157597,
    "name": "Wanshan",
    "state_id": 2261,
    "state_code": "GZ",
    "country_id": 45,
    "country_code": "CN",
    "latitude": "27.69484880",
    "longitude": "109.17656030",
    "wikiDataId": null
  },
  {
    "id": 20216,
    "name": "Weining",
    "state_id": 2261,
    "state_code": "GZ",
    "country_id": 45,
    "country_code": "CN",
    "latitude": "26.85000000",
    "longitude": "104.23333000",
    "wikiDataId": null
  },
  {
    "id": 157593,
    "name": "Weining",
    "state_id": 2261,
    "state_code": "GZ",
    "country_id": 45,
    "country_code": "CN",
    "latitude": "27.03490000",
    "longitude": "104.06733200",
    "wikiDataId": null
  },
  {
    "id": 157637,
    "name": "Weng'an",
    "state_id": 2261,
    "state_code": "GZ",
    "country_id": 45,
    "country_code": "CN",
    "latitude": "27.14594000",
    "longitude": "107.40636400",
    "wikiDataId": null
  },
  {
    "id": 20224,
    "name": "Wenshui",
    "state_id": 2261,
    "state_code": "GZ",
    "country_id": 45,
    "country_code": "CN",
    "latitude": "28.45056000",
    "longitude": "106.52667000",
    "wikiDataId": null
  },
  {
    "id": 157575,
    "name": "Wuchuan",
    "state_id": 2261,
    "state_code": "GZ",
    "country_id": 45,
    "country_code": "CN",
    "latitude": "28.56633480",
    "longitude": "107.89571420",
    "wikiDataId": null
  },
  {
    "id": 157557,
    "name": "Wudang",
    "state_id": 2261,
    "state_code": "GZ",
    "country_id": 45,
    "country_code": "CN",
    "latitude": "26.63364970",
    "longitude": "106.74934350",
    "wikiDataId": null
  },
  {
    "id": 20250,
    "name": "Xiajiang",
    "state_id": 2261,
    "state_code": "GZ",
    "country_id": 45,
    "country_code": "CN",
    "latitude": "25.75556000",
    "longitude": "108.69194000",
    "wikiDataId": null
  },
  {
    "id": 20276,
    "name": "Xiaoweizhai",
    "state_id": 2261,
    "state_code": "GZ",
    "country_id": 45,
    "country_code": "CN",
    "latitude": "26.19028000",
    "longitude": "107.51250000",
    "wikiDataId": null
  },
  {
    "id": 157561,
    "name": "Xifeng",
    "state_id": 2261,
    "state_code": "GZ",
    "country_id": 45,
    "country_code": "CN",
    "latitude": "27.14906800",
    "longitude": "106.66348800",
    "wikiDataId": null
  },
  {
    "id": 157608,
    "name": "Xingren",
    "state_id": 2261,
    "state_code": "GZ",
    "country_id": 45,
    "country_code": "CN",
    "latitude": "25.50503000",
    "longitude": "105.19988000",
    "wikiDataId": null
  },
  {
    "id": 157607,
    "name": "Xingyi",
    "state_id": 2261,
    "state_code": "GZ",
    "country_id": 45,
    "country_code": "CN",
    "latitude": "25.09476130",
    "longitude": "104.89354720",
    "wikiDataId": null
  },
  {
    "id": 20315,
    "name": "Xinzhan",
    "state_id": 2261,
    "state_code": "GZ",
    "country_id": 45,
    "country_code": "CN",
    "latitude": "28.38833000",
    "longitude": "106.85667000",
    "wikiDataId": null
  },
  {
    "id": 20321,
    "name": "Xishan",
    "state_id": 2261,
    "state_code": "GZ",
    "country_id": 45,
    "country_code": "CN",
    "latitude": "25.68528000",
    "longitude": "108.96389000",
    "wikiDataId": null
  },
  {
    "id": 157579,
    "name": "Xishui",
    "state_id": 2261,
    "state_code": "GZ",
    "country_id": 45,
    "country_code": "CN",
    "latitude": "28.31619930",
    "longitude": "106.21571480",
    "wikiDataId": null
  },
  {
    "id": 157562,
    "name": "Xiuwen",
    "state_id": 2261,
    "state_code": "GZ",
    "country_id": 45,
    "country_code": "CN",
    "latitude": "26.91291200",
    "longitude": "106.58216300",
    "wikiDataId": null
  },
  {
    "id": 157582,
    "name": "Xixiu",
    "state_id": 2261,
    "state_code": "GZ",
    "country_id": 45,
    "country_code": "CN",
    "latitude": "26.18410250",
    "longitude": "106.06205030",
    "wikiDataId": null
  },
  {
    "id": 20334,
    "name": "Xujiaba",
    "state_id": 2261,
    "state_code": "GZ",
    "country_id": 45,
    "country_code": "CN",
    "latitude": "27.88472000",
    "longitude": "108.11361000",
    "wikiDataId": null
  },
  {
    "id": 20347,
    "name": "Yangtou",
    "state_id": 2261,
    "state_code": "GZ",
    "country_id": 45,
    "country_code": "CN",
    "latitude": "27.68944000",
    "longitude": "109.41389000",
    "wikiDataId": null
  },
  {
    "id": 157604,
    "name": "Yanhe",
    "state_id": 2261,
    "state_code": "GZ",
    "country_id": 45,
    "country_code": "CN",
    "latitude": "28.56773130",
    "longitude": "108.49896840",
    "wikiDataId": null
  },
  {
    "id": 157602,
    "name": "Yinjiang",
    "state_id": 2261,
    "state_code": "GZ",
    "country_id": 45,
    "country_code": "CN",
    "latitude": "27.96913330",
    "longitude": "108.50048210",
    "wikiDataId": null
  },
  {
    "id": 20390,
    "name": "Youyupu",
    "state_id": 2261,
    "state_code": "GZ",
    "country_id": 45,
    "country_code": "CN",
    "latitude": "27.55170000",
    "longitude": "109.13500000",
    "wikiDataId": null
  },
  {
    "id": 157555,
    "name": "Yunyan",
    "state_id": 2261,
    "state_code": "GZ",
    "country_id": 45,
    "country_code": "CN",
    "latitude": "26.60799690",
    "longitude": "106.72059940",
    "wikiDataId": null
  },
  {
    "id": 157599,
    "name": "Yuping",
    "state_id": 2261,
    "state_code": "GZ",
    "country_id": 45,
    "country_code": "CN",
    "latitude": "27.33517800",
    "longitude": "109.01254000",
    "wikiDataId": null
  },
  {
    "id": 157578,
    "name": "Yuqing",
    "state_id": 2261,
    "state_code": "GZ",
    "country_id": 45,
    "country_code": "CN",
    "latitude": "27.40086400",
    "longitude": "107.66441600",
    "wikiDataId": null
  },
  {
    "id": 157611,
    "name": "Zhenfeng",
    "state_id": 2261,
    "state_code": "GZ",
    "country_id": 45,
    "country_code": "CN",
    "latitude": "25.45490000",
    "longitude": "105.64170000",
    "wikiDataId": null
  },
  {
    "id": 157573,
    "name": "Zheng'an",
    "state_id": 2261,
    "state_code": "GZ",
    "country_id": 45,
    "country_code": "CN",
    "latitude": "28.55664700",
    "longitude": "107.44962800",
    "wikiDataId": null
  },
  {
    "id": 157585,
    "name": "Zhenning",
    "state_id": 2261,
    "state_code": "GZ",
    "country_id": 45,
    "country_code": "CN",
    "latitude": "25.91374570",
    "longitude": "105.82039970",
    "wikiDataId": null
  },
  {
    "id": 157620,
    "name": "Zhenyuan",
    "state_id": 2261,
    "state_code": "GZ",
    "country_id": 45,
    "country_code": "CN",
    "latitude": "27.13499300",
    "longitude": "108.45421000",
    "wikiDataId": null
  },
  {
    "id": 157591,
    "name": "Zhijin",
    "state_id": 2261,
    "state_code": "GZ",
    "country_id": 45,
    "country_code": "CN",
    "latitude": "26.64145060",
    "longitude": "105.79330780",
    "wikiDataId": null
  },
  {
    "id": 20448,
    "name": "Zhongchao",
    "state_id": 2261,
    "state_code": "GZ",
    "country_id": 45,
    "country_code": "CN",
    "latitude": "26.13750000",
    "longitude": "109.22000000",
    "wikiDataId": null
  },
  {
    "id": 157564,
    "name": "Zhongshan",
    "state_id": 2261,
    "state_code": "GZ",
    "country_id": 45,
    "country_code": "CN",
    "latitude": "26.57785510",
    "longitude": "104.84069540",
    "wikiDataId": null
  },
  {
    "id": 20468,
    "name": "Zhujiachang",
    "state_id": 2261,
    "state_code": "GZ",
    "country_id": 45,
    "country_code": "CN",
    "latitude": "27.35750000",
    "longitude": "108.93833000",
    "wikiDataId": null
  },
  {
    "id": 157587,
    "name": "Ziyun",
    "state_id": 2261,
    "state_code": "GZ",
    "country_id": 45,
    "country_code": "CN",
    "latitude": "25.75379750",
    "longitude": "106.08060850",
    "wikiDataId": null
  },
  {
    "id": 20483,
    "name": "Zunyi",
    "state_id": 2261,
    "state_code": "GZ",
    "country_id": 45,
    "country_code": "CN",
    "latitude": "27.69129540",
    "longitude": "106.91559740",
    "wikiDataId": null
  }
]