[
  {
    "id": 159983,
    "name": "Central and Western",
    "state_id": 2267,
    "state_code": "HK",
    "country_id": 45,
    "country_code": "CN",
    "latitude": "22.28666000",
    "longitude": "114.15497000",
    "wikiDataId": null
  },
  {
    "id": 159985,
    "name": "Eastern",
    "state_id": 2267,
    "state_code": "HK",
    "country_id": 45,
    "country_code": "CN",
    "latitude": "22.28411000",
    "longitude": "114.22414000",
    "wikiDataId": null
  },
  {
    "id": 159982,
    "name": "Islands",
    "state_id": 2267,
    "state_code": "HK",
    "country_id": 45,
    "country_code": "CN",
    "latitude": "22.26114000",
    "longitude": "113.94608000",
    "wikiDataId": null
  },
  {
    "id": 159989,
    "name": "Kowloon City",
    "state_id": 2267,
    "state_code": "HK",
    "country_id": 45,
    "country_code": "CN",
    "latitude": "22.32820000",
    "longitude": "114.19155000",
    "wikiDataId": null
  },
  {
    "id": 159992,
    "name": "Kwai Tsing",
    "state_id": 2267,
    "state_code": "HK",
    "country_id": 45,
    "country_code": "CN",
    "latitude": "22.36343030",
    "longitude": "114.12298250",
    "wikiDataId": null
  },
  {
    "id": 159991,
    "name": "Kwun Tong",
    "state_id": 2267,
    "state_code": "HK",
    "country_id": 45,
    "country_code": "CN",
    "latitude": "22.31326000",
    "longitude": "114.22581000",
    "wikiDataId": null
  },
  {
    "id": 159994,
    "name": "North",
    "state_id": 2267,
    "state_code": "HK",
    "country_id": 45,
    "country_code": "CN",
    "latitude": "22.49471000",
    "longitude": "114.13812000",
    "wikiDataId": null
  },
  {
    "id": 159981,
    "name": "Sai Kung",
    "state_id": 2267,
    "state_code": "HK",
    "country_id": 45,
    "country_code": "CN",
    "latitude": "21.67305190",
    "longitude": "108.39543130",
    "wikiDataId": null
  },
  {
    "id": 159995,
    "name": "Sha Tin",
    "state_id": 2267,
    "state_code": "HK",
    "country_id": 45,
    "country_code": "CN",
    "latitude": "22.38715000",
    "longitude": "114.19534000",
    "wikiDataId": null
  },
  {
    "id": 159988,
    "name": "Sham Shui Po",
    "state_id": 2267,
    "state_code": "HK",
    "country_id": 45,
    "country_code": "CN",
    "latitude": "22.23573830",
    "longitude": "114.16981620",
    "wikiDataId": null
  },
  {
    "id": 159986,
    "name": "Southern",
    "state_id": 2267,
    "state_code": "HK",
    "country_id": 45,
    "country_code": "CN",
    "latitude": "22.24725000",
    "longitude": "114.15884000",
    "wikiDataId": null
  },
  {
    "id": 159980,
    "name": "Tai Po",
    "state_id": 2267,
    "state_code": "HK",
    "country_id": 45,
    "country_code": "CN",
    "latitude": "22.45085000",
    "longitude": "114.16422000",
    "wikiDataId": null
  },
  {
    "id": 159979,
    "name": "Tsuen Wan",
    "state_id": 2267,
    "state_code": "HK",
    "country_id": 45,
    "country_code": "CN",
    "latitude": "22.36281000",
    "longitude": "114.12907000",
    "wikiDataId": null
  },
  {
    "id": 159993,
    "name": "Tuen Mun",
    "state_id": 2267,
    "state_code": "HK",
    "country_id": 45,
    "country_code": "CN",
    "latitude": "22.39163000",
    "longitude": "113.97708850",
    "wikiDataId": null
  },
  {
    "id": 159984,
    "name": "Wan Chai",
    "state_id": 2267,
    "state_code": "HK",
    "country_id": 45,
    "country_code": "CN",
    "latitude": "22.26449900",
    "longitude": "114.18982160",
    "wikiDataId": null
  },
  {
    "id": 159990,
    "name": "Wong Tai Sin",
    "state_id": 2267,
    "state_code": "HK",
    "country_id": 45,
    "country_code": "CN",
    "latitude": "22.33353000",
    "longitude": "114.19686000",
    "wikiDataId": null
  },
  {
    "id": 159987,
    "name": "Yau Tsim Mong",
    "state_id": 2267,
    "state_code": "HK",
    "country_id": 45,
    "country_code": "CN",
    "latitude": "22.32138000",
    "longitude": "114.17260000",
    "wikiDataId": null
  },
  {
    "id": 159978,
    "name": "Yuen Long",
    "state_id": 2267,
    "state_code": "HK",
    "country_id": 45,
    "country_code": "CN",
    "latitude": "22.44870510",
    "longitude": "114.09587040",
    "wikiDataId": null
  }
]