[
  {
    "id": 160147,
    "name": "Deçan",
    "state_id": 4876,
    "state_code": "XDG",
    "country_id": 248,
    "country_code": "XK",
    "latitude": "42.54018000",
    "longitude": "20.28793000",
    "wikiDataId": null
  },
  {
    "id": 160149,
    "name": "Dranoc",
    "state_id": 4876,
    "state_code": "XDG",
    "country_id": 248,
    "country_code": "XK",
    "latitude": "42.51556000",
    "longitude": "20.29222000",
    "wikiDataId": null
  },
  {
    "id": 160146,
    "name": "Gjakovë",
    "state_id": 4876,
    "state_code": "XDG",
    "country_id": 248,
    "country_code": "XK",
    "latitude": "42.38028000",
    "longitude": "20.43083000",
    "wikiDataId": null
  },
  {
    "id": 160150,
    "name": "Gllogjan",
    "state_id": 4876,
    "state_code": "XDG",
    "country_id": 248,
    "country_code": "XK",
    "latitude": "42.50722000",
    "longitude": "20.36278000",
    "wikiDataId": null
  },
  {
    "id": 160158,
    "name": "Irzniq",
    "state_id": 4876,
    "state_code": "XDG",
    "country_id": 248,
    "country_code": "XK",
    "latitude": "42.52000000",
    "longitude": "20.34722000",
    "wikiDataId": null
  },
  {
    "id": 160153,
    "name": "Isniq",
    "state_id": 4876,
    "state_code": "XDG",
    "country_id": 248,
    "country_code": "XK",
    "latitude": "42.55750000",
    "longitude": "20.30278000",
    "wikiDataId": null
  },
  {
    "id": 160154,
    "name": "Lëbushë",
    "state_id": 4876,
    "state_code": "XDG",
    "country_id": 248,
    "country_code": "XK",
    "latitude": "42.56306000",
    "longitude": "20.29083000",
    "wikiDataId": null
  },
  {
    "id": 160144,
    "name": "Lloqan",
    "state_id": 4876,
    "state_code": "XDG",
    "country_id": 248,
    "country_code": "XK",
    "latitude": "42.52444000",
    "longitude": "20.28083000",
    "wikiDataId": null
  },
  {
    "id": 160151,
    "name": "Lluka e Eperme",
    "state_id": 4876,
    "state_code": "XDG",
    "country_id": 248,
    "country_code": "XK",
    "latitude": "42.54500000",
    "longitude": "20.30778000",
    "wikiDataId": null
  },
  {
    "id": 160155,
    "name": "Lumbardhi",
    "state_id": 4876,
    "state_code": "XDG",
    "country_id": 248,
    "country_code": "XK",
    "latitude": "42.54667000",
    "longitude": "20.34667000",
    "wikiDataId": null
  },
  {
    "id": 160156,
    "name": "Orahovac",
    "state_id": 4876,
    "state_code": "XDG",
    "country_id": 248,
    "country_code": "XK",
    "latitude": "42.39944000",
    "longitude": "20.65472000",
    "wikiDataId": null
  },
  {
    "id": 160145,
    "name": "Papraqan",
    "state_id": 4876,
    "state_code": "XDG",
    "country_id": 248,
    "country_code": "XK",
    "latitude": "42.55278000",
    "longitude": "20.33111000",
    "wikiDataId": null
  },
  {
    "id": 160157,
    "name": "Prilep",
    "state_id": 4876,
    "state_code": "XDG",
    "country_id": 248,
    "country_code": "XK",
    "latitude": "42.50750000",
    "longitude": "20.31778000",
    "wikiDataId": null
  },
  {
    "id": 160152,
    "name": "Strellc i Epërm",
    "state_id": 4876,
    "state_code": "XDG",
    "country_id": 248,
    "country_code": "XK",
    "latitude": "42.57843000",
    "longitude": "20.29398000",
    "wikiDataId": null
  },
  {
    "id": 160148,
    "name": "Strellc i Ulët",
    "state_id": 4876,
    "state_code": "XDG",
    "country_id": 248,
    "country_code": "XK",
    "latitude": "42.58063000",
    "longitude": "20.31619000",
    "wikiDataId": null
  }
]