[
  {
    "id": 158611,
    "name": "Antu",
    "state_id": 2253,
    "state_code": "JL",
    "country_id": 45,
    "country_code": "CN",
    "latitude": "43.10370370",
    "longitude": "128.91103390",
    "wikiDataId": null
  },
  {
    "id": 19298,
    "name": "Baicheng",
    "state_id": 2253,
    "state_code": "JL",
    "country_id": 45,
    "country_code": "CN",
    "latitude": "45.40860010",
    "longitude": "123.13271610",
    "wikiDataId": null
  },
  {
    "id": 19306,
    "name": "Baishan",
    "state_id": 2253,
    "state_code": "JL",
    "country_id": 45,
    "country_code": "CN",
    "latitude": "41.93689500",
    "longitude": "126.41837920",
    "wikiDataId": null
  },
  {
    "id": 19308,
    "name": "Baishishan",
    "state_id": 2253,
    "state_code": "JL",
    "country_id": 45,
    "country_code": "CN",
    "latitude": "43.58333000",
    "longitude": "127.56667000",
    "wikiDataId": null
  },
  {
    "id": 158591,
    "name": "Changbai",
    "state_id": 2253,
    "state_code": "JL",
    "country_id": 45,
    "country_code": "CN",
    "latitude": "41.41770150",
    "longitude": "128.19477180",
    "wikiDataId": null
  },
  {
    "id": 19363,
    "name": "Changchun",
    "state_id": 2253,
    "state_code": "JL",
    "country_id": 45,
    "country_code": "CN",
    "latitude": "43.88442010",
    "longitude": "125.31809980",
    "wikiDataId": null
  },
  {
    "id": 19369,
    "name": "Changling",
    "state_id": 2253,
    "state_code": "JL",
    "country_id": 45,
    "country_code": "CN",
    "latitude": "44.26532000",
    "longitude": "124.00045000",
    "wikiDataId": null
  },
  {
    "id": 158595,
    "name": "Changling",
    "state_id": 2253,
    "state_code": "JL",
    "country_id": 45,
    "country_code": "CN",
    "latitude": "44.34375010",
    "longitude": "123.58732750",
    "wikiDataId": null
  },
  {
    "id": 158562,
    "name": "Changyi",
    "state_id": 2253,
    "state_code": "JL",
    "country_id": 45,
    "country_code": "CN",
    "latitude": "43.99360610",
    "longitude": "126.34176820",
    "wikiDataId": null
  },
  {
    "id": 19381,
    "name": "Chaoyang",
    "state_id": 2253,
    "state_code": "JL",
    "country_id": 45,
    "country_code": "CN",
    "latitude": "42.66223000",
    "longitude": "126.02630000",
    "wikiDataId": null
  },
  {
    "id": 158553,
    "name": "Chaoyang",
    "state_id": 2253,
    "state_code": "JL",
    "country_id": 45,
    "country_code": "CN",
    "latitude": "43.67731480",
    "longitude": "125.30617040",
    "wikiDataId": null
  },
  {
    "id": 158564,
    "name": "Chuanying",
    "state_id": 2253,
    "state_code": "JL",
    "country_id": 45,
    "country_code": "CN",
    "latitude": "43.84745510",
    "longitude": "126.28684380",
    "wikiDataId": null
  },
  {
    "id": 158602,
    "name": "Da'an",
    "state_id": 2253,
    "state_code": "JL",
    "country_id": 45,
    "country_code": "CN",
    "latitude": "45.44279840",
    "longitude": "123.72072570",
    "wikiDataId": null
  },
  {
    "id": 19418,
    "name": "Dalai",
    "state_id": 2253,
    "state_code": "JL",
    "country_id": 45,
    "country_code": "CN",
    "latitude": "45.50000000",
    "longitude": "124.30000000",
    "wikiDataId": null
  },
  {
    "id": 19434,
    "name": "Dashitou",
    "state_id": 2253,
    "state_code": "JL",
    "country_id": 45,
    "country_code": "CN",
    "latitude": "43.30667000",
    "longitude": "128.51139000",
    "wikiDataId": null
  },
  {
    "id": 19447,
    "name": "Dehui",
    "state_id": 2253,
    "state_code": "JL",
    "country_id": 45,
    "country_code": "CN",
    "latitude": "44.53333000",
    "longitude": "125.70000000",
    "wikiDataId": null
  },
  {
    "id": 158560,
    "name": "Dehui",
    "state_id": 2253,
    "state_code": "JL",
    "country_id": 45,
    "country_code": "CN",
    "latitude": "44.53501410",
    "longitude": "125.69543630",
    "wikiDataId": null
  },
  {
    "id": 158580,
    "name": "Dongchang",
    "state_id": 2253,
    "state_code": "JL",
    "country_id": 45,
    "country_code": "CN",
    "latitude": "41.68534090",
    "longitude": "125.96468000",
    "wikiDataId": null
  },
  {
    "id": 19466,
    "name": "Dongfeng",
    "state_id": 2253,
    "state_code": "JL",
    "country_id": 45,
    "country_code": "CN",
    "latitude": "42.64031000",
    "longitude": "125.51176000",
    "wikiDataId": null
  },
  {
    "id": 158578,
    "name": "Dongfeng",
    "state_id": 2253,
    "state_code": "JL",
    "country_id": 45,
    "country_code": "CN",
    "latitude": "42.76447400",
    "longitude": "125.62412610",
    "wikiDataId": null
  },
  {
    "id": 158579,
    "name": "Dongliao",
    "state_id": 2253,
    "state_code": "JL",
    "country_id": 45,
    "country_code": "CN",
    "latitude": "42.86577360",
    "longitude": "125.27898680",
    "wikiDataId": null
  },
  {
    "id": 19485,
    "name": "Dunhua",
    "state_id": 2253,
    "state_code": "JL",
    "country_id": 45,
    "country_code": "CN",
    "latitude": "43.37250000",
    "longitude": "128.24250000",
    "wikiDataId": null
  },
  {
    "id": 158606,
    "name": "Dunhua",
    "state_id": 2253,
    "state_code": "JL",
    "country_id": 45,
    "country_code": "CN",
    "latitude": "43.36862050",
    "longitude": "128.22679870",
    "wikiDataId": null
  },
  {
    "id": 158554,
    "name": "Erdao",
    "state_id": 2253,
    "state_code": "JL",
    "country_id": 45,
    "country_code": "CN",
    "latitude": "43.86278700",
    "longitude": "125.36820920",
    "wikiDataId": null
  },
  {
    "id": 19493,
    "name": "Erdaojiang",
    "state_id": 2253,
    "state_code": "JL",
    "country_id": 45,
    "country_code": "CN",
    "latitude": "41.77639000",
    "longitude": "126.03194000",
    "wikiDataId": null
  },
  {
    "id": 158581,
    "name": "Erdaojiang",
    "state_id": 2253,
    "state_code": "JL",
    "country_id": 45,
    "country_code": "CN",
    "latitude": "41.77144410",
    "longitude": "126.03666500",
    "wikiDataId": null
  },
  {
    "id": 158565,
    "name": "Fengman",
    "state_id": 2253,
    "state_code": "JL",
    "country_id": 45,
    "country_code": "CN",
    "latitude": "43.81911880",
    "longitude": "126.55587310",
    "wikiDataId": null
  },
  {
    "id": 158589,
    "name": "Fusong",
    "state_id": 2253,
    "state_code": "JL",
    "country_id": 45,
    "country_code": "CN",
    "latitude": "42.23600090",
    "longitude": "127.62026920",
    "wikiDataId": null
  },
  {
    "id": 19529,
    "name": "Fuyu",
    "state_id": 2253,
    "state_code": "JL",
    "country_id": 45,
    "country_code": "CN",
    "latitude": "45.18333000",
    "longitude": "124.81667000",
    "wikiDataId": null
  },
  {
    "id": 158597,
    "name": "Fuyu",
    "state_id": 2253,
    "state_code": "JL",
    "country_id": 45,
    "country_code": "CN",
    "latitude": "44.98636020",
    "longitude": "126.04041200",
    "wikiDataId": null
  },
  {
    "id": 19557,
    "name": "Gongzhuling",
    "state_id": 2253,
    "state_code": "JL",
    "country_id": 45,
    "country_code": "CN",
    "latitude": "43.50075000",
    "longitude": "124.81979000",
    "wikiDataId": null
  },
  {
    "id": 158561,
    "name": "Gongzhuling",
    "state_id": 2253,
    "state_code": "JL",
    "country_id": 45,
    "country_code": "CN",
    "latitude": "43.77037840",
    "longitude": "124.76567490",
    "wikiDataId": null
  },
  {
    "id": 19559,
    "name": "Guangming",
    "state_id": 2253,
    "state_code": "JL",
    "country_id": 45,
    "country_code": "CN",
    "latitude": "45.33333000",
    "longitude": "122.78333000",
    "wikiDataId": null
  },
  {
    "id": 19612,
    "name": "Helong",
    "state_id": 2253,
    "state_code": "JL",
    "country_id": 45,
    "country_code": "CN",
    "latitude": "42.53974000",
    "longitude": "128.99722000",
    "wikiDataId": null
  },
  {
    "id": 158609,
    "name": "Helong",
    "state_id": 2253,
    "state_code": "JL",
    "country_id": 45,
    "country_code": "CN",
    "latitude": "42.54375080",
    "longitude": "129.00434080",
    "wikiDataId": null
  },
  {
    "id": 19616,
    "name": "Hepingjie",
    "state_id": 2253,
    "state_code": "JL",
    "country_id": 45,
    "country_code": "CN",
    "latitude": "42.05972000",
    "longitude": "126.91583000",
    "wikiDataId": null
  },
  {
    "id": 19634,
    "name": "Huadian",
    "state_id": 2253,
    "state_code": "JL",
    "country_id": 45,
    "country_code": "CN",
    "latitude": "42.96333000",
    "longitude": "126.74778000",
    "wikiDataId": null
  },
  {
    "id": 158568,
    "name": "Huadian",
    "state_id": 2253,
    "state_code": "JL",
    "country_id": 45,
    "country_code": "CN",
    "latitude": "43.10638900",
    "longitude": "126.97500000",
    "wikiDataId": null
  },
  {
    "id": 19653,
    "name": "Huangnihe",
    "state_id": 2253,
    "state_code": "JL",
    "country_id": 45,
    "country_code": "CN",
    "latitude": "43.55833000",
    "longitude": "128.02389000",
    "wikiDataId": null
  },
  {
    "id": 19674,
    "name": "Huinan",
    "state_id": 2253,
    "state_code": "JL",
    "country_id": 45,
    "country_code": "CN",
    "latitude": "42.62250000",
    "longitude": "126.26139000",
    "wikiDataId": null
  },
  {
    "id": 158583,
    "name": "Huinan",
    "state_id": 2253,
    "state_code": "JL",
    "country_id": 45,
    "country_code": "CN",
    "latitude": "42.52916700",
    "longitude": "126.34500000",
    "wikiDataId": null
  },
  {
    "id": 19682,
    "name": "Hunchun",
    "state_id": 2253,
    "state_code": "JL",
    "country_id": 45,
    "country_code": "CN",
    "latitude": "42.86750000",
    "longitude": "130.35806000",
    "wikiDataId": null
  },
  {
    "id": 158607,
    "name": "Hunchun",
    "state_id": 2253,
    "state_code": "JL",
    "country_id": 45,
    "country_code": "CN",
    "latitude": "42.86532100",
    "longitude": "130.35594300",
    "wikiDataId": null
  },
  {
    "id": 158587,
    "name": "Hunjiang",
    "state_id": 2253,
    "state_code": "JL",
    "country_id": 45,
    "country_code": "CN",
    "latitude": "41.94239490",
    "longitude": "126.41029020",
    "wikiDataId": null
  },
  {
    "id": 158586,
    "name": "Ji'an",
    "state_id": 2253,
    "state_code": "JL",
    "country_id": 45,
    "country_code": "CN",
    "latitude": "41.25833300",
    "longitude": "126.01777800",
    "wikiDataId": null
  },
  {
    "id": 19763,
    "name": "Ji’an",
    "state_id": 2253,
    "state_code": "JL",
    "country_id": 45,
    "country_code": "CN",
    "latitude": "41.12349000",
    "longitude": "126.17631000",
    "wikiDataId": null
  },
  {
    "id": 158588,
    "name": "Jiangyuan",
    "state_id": 2253,
    "state_code": "JL",
    "country_id": 45,
    "country_code": "CN",
    "latitude": "42.05404250",
    "longitude": "126.58638140",
    "wikiDataId": null
  },
  {
    "id": 158567,
    "name": "Jiaohe",
    "state_id": 2253,
    "state_code": "JL",
    "country_id": 45,
    "country_code": "CN",
    "latitude": "43.68487680",
    "longitude": "127.35785790",
    "wikiDataId": null
  },
  {
    "id": 19725,
    "name": "Jilin",
    "state_id": 2253,
    "state_code": "JL",
    "country_id": 45,
    "country_code": "CN",
    "latitude": "43.83496690",
    "longitude": "126.54387020",
    "wikiDataId": null
  },
  {
    "id": 158590,
    "name": "Jingyu",
    "state_id": 2253,
    "state_code": "JL",
    "country_id": 45,
    "country_code": "CN",
    "latitude": "42.38799260",
    "longitude": "126.81040160",
    "wikiDataId": null
  },
  {
    "id": 19753,
    "name": "Jishu",
    "state_id": 2253,
    "state_code": "JL",
    "country_id": 45,
    "country_code": "CN",
    "latitude": "44.31667000",
    "longitude": "126.80000000",
    "wikiDataId": null
  },
  {
    "id": 19759,
    "name": "Jiutai",
    "state_id": 2253,
    "state_code": "JL",
    "country_id": 45,
    "country_code": "CN",
    "latitude": "44.15250000",
    "longitude": "125.83278000",
    "wikiDataId": null
  },
  {
    "id": 158557,
    "name": "Jiutai",
    "state_id": 2253,
    "state_code": "JL",
    "country_id": 45,
    "country_code": "CN",
    "latitude": "44.15232360",
    "longitude": "125.83873840",
    "wikiDataId": null
  },
  {
    "id": 19768,
    "name": "Kaitong",
    "state_id": 2253,
    "state_code": "JL",
    "country_id": 45,
    "country_code": "CN",
    "latitude": "44.81351000",
    "longitude": "123.15000000",
    "wikiDataId": null
  },
  {
    "id": 158552,
    "name": "Kuancheng",
    "state_id": 2253,
    "state_code": "JL",
    "country_id": 45,
    "country_code": "CN",
    "latitude": "43.94092300",
    "longitude": "125.32035790",
    "wikiDataId": null
  },
  {
    "id": 19830,
    "name": "Liaoyuan",
    "state_id": 2253,
    "state_code": "JL",
    "country_id": 45,
    "country_code": "CN",
    "latitude": "42.88638460",
    "longitude": "125.13749050",
    "wikiDataId": null
  },
  {
    "id": 19845,
    "name": "Linjiang",
    "state_id": 2253,
    "state_code": "JL",
    "country_id": 45,
    "country_code": "CN",
    "latitude": "41.80694000",
    "longitude": "126.90778000",
    "wikiDataId": null
  },
  {
    "id": 158592,
    "name": "Linjiang",
    "state_id": 2253,
    "state_code": "JL",
    "country_id": 45,
    "country_code": "CN",
    "latitude": "41.80924860",
    "longitude": "126.91283340",
    "wikiDataId": null
  },
  {
    "id": 19857,
    "name": "Lishu",
    "state_id": 2253,
    "state_code": "JL",
    "country_id": 45,
    "country_code": "CN",
    "latitude": "43.30472000",
    "longitude": "124.32778000",
    "wikiDataId": null
  },
  {
    "id": 158573,
    "name": "Lishu",
    "state_id": 2253,
    "state_code": "JL",
    "country_id": 45,
    "country_code": "CN",
    "latitude": "43.48727110",
    "longitude": "124.33289230",
    "wikiDataId": null
  },
  {
    "id": 19860,
    "name": "Liuhe",
    "state_id": 2253,
    "state_code": "JL",
    "country_id": 45,
    "country_code": "CN",
    "latitude": "42.24007000",
    "longitude": "125.71717000",
    "wikiDataId": null
  },
  {
    "id": 158584,
    "name": "Liuhe",
    "state_id": 2253,
    "state_code": "JL",
    "country_id": 45,
    "country_code": "CN",
    "latitude": "42.18777800",
    "longitude": "125.89555600",
    "wikiDataId": null
  },
  {
    "id": 19868,
    "name": "Longjing",
    "state_id": 2253,
    "state_code": "JL",
    "country_id": 45,
    "country_code": "CN",
    "latitude": "42.77139000",
    "longitude": "129.42333000",
    "wikiDataId": null
  },
  {
    "id": 158608,
    "name": "Longjing",
    "state_id": 2253,
    "state_code": "JL",
    "country_id": 45,
    "country_code": "CN",
    "latitude": "42.76411000",
    "longitude": "129.42057020",
    "wikiDataId": null
  },
  {
    "id": 158576,
    "name": "Longshan",
    "state_id": 2253,
    "state_code": "JL",
    "country_id": 45,
    "country_code": "CN",
    "latitude": "42.89921640",
    "longitude": "125.12920300",
    "wikiDataId": null
  },
  {
    "id": 158563,
    "name": "Longtan",
    "state_id": 2253,
    "state_code": "JL",
    "country_id": 45,
    "country_code": "CN",
    "latitude": "44.03756660",
    "longitude": "126.63666880",
    "wikiDataId": null
  },
  {
    "id": 158555,
    "name": "Luyuan",
    "state_id": 2253,
    "state_code": "JL",
    "country_id": 45,
    "country_code": "CN",
    "latitude": "43.87832360",
    "longitude": "125.24978020",
    "wikiDataId": null
  },
  {
    "id": 19910,
    "name": "Meihekou",
    "state_id": 2253,
    "state_code": "JL",
    "country_id": 45,
    "country_code": "CN",
    "latitude": "42.52722000",
    "longitude": "125.67528000",
    "wikiDataId": null
  },
  {
    "id": 158585,
    "name": "Meihekou",
    "state_id": 2253,
    "state_code": "JL",
    "country_id": 45,
    "country_code": "CN",
    "latitude": "42.56685950",
    "longitude": "125.78387960",
    "wikiDataId": null
  },
  {
    "id": 19922,
    "name": "Mingyue",
    "state_id": 2253,
    "state_code": "JL",
    "country_id": 45,
    "country_code": "CN",
    "latitude": "43.10694000",
    "longitude": "128.92167000",
    "wikiDataId": null
  },
  {
    "id": 19923,
    "name": "Minzhu",
    "state_id": 2253,
    "state_code": "JL",
    "country_id": 45,
    "country_code": "CN",
    "latitude": "43.72145000",
    "longitude": "127.33401000",
    "wikiDataId": null
  },
  {
    "id": 158551,
    "name": "Nanguan",
    "state_id": 2253,
    "state_code": "JL",
    "country_id": 45,
    "country_code": "CN",
    "latitude": "43.86124790",
    "longitude": "125.34373200",
    "wikiDataId": null
  },
  {
    "id": 158593,
    "name": "Ningjiang",
    "state_id": 2253,
    "state_code": "JL",
    "country_id": 45,
    "country_code": "CN",
    "latitude": "45.21472850",
    "longitude": "124.91968600",
    "wikiDataId": null
  },
  {
    "id": 158558,
    "name": "Nong'an",
    "state_id": 2253,
    "state_code": "JL",
    "country_id": 45,
    "country_code": "CN",
    "latitude": "44.43105870",
    "longitude": "125.16621160",
    "wikiDataId": null
  },
  {
    "id": 19974,
    "name": "Panshi",
    "state_id": 2253,
    "state_code": "JL",
    "country_id": 45,
    "country_code": "CN",
    "latitude": "42.94222000",
    "longitude": "126.05611000",
    "wikiDataId": null
  },
  {
    "id": 158570,
    "name": "Panshi",
    "state_id": 2253,
    "state_code": "JL",
    "country_id": 45,
    "country_code": "CN",
    "latitude": "43.07027800",
    "longitude": "126.14805600",
    "wikiDataId": null
  },
  {
    "id": 158596,
    "name": "Qian'an",
    "state_id": 2253,
    "state_code": "JL",
    "country_id": 45,
    "country_code": "CN",
    "latitude": "44.97418420",
    "longitude": "123.96421010",
    "wikiDataId": null
  },
  {
    "id": 158594,
    "name": "Qianguorluosi",
    "state_id": 2253,
    "state_code": "JL",
    "country_id": 45,
    "country_code": "CN",
    "latitude": "0.00000000",
    "longitude": "0.00000000",
    "wikiDataId": null
  },
  {
    "id": 20052,
    "name": "Sanchazi",
    "state_id": 2253,
    "state_code": "JL",
    "country_id": 45,
    "country_code": "CN",
    "latitude": "42.08167000",
    "longitude": "126.60028000",
    "wikiDataId": null
  },
  {
    "id": 158575,
    "name": "Shuangliao",
    "state_id": 2253,
    "state_code": "JL",
    "country_id": 45,
    "country_code": "CN",
    "latitude": "43.81200190",
    "longitude": "123.77232980",
    "wikiDataId": null
  },
  {
    "id": 20119,
    "name": "Shuangyang",
    "state_id": 2253,
    "state_code": "JL",
    "country_id": 45,
    "country_code": "CN",
    "latitude": "43.52417000",
    "longitude": "125.67361000",
    "wikiDataId": null
  },
  {
    "id": 158556,
    "name": "Shuangyang",
    "state_id": 2253,
    "state_code": "JL",
    "country_id": 45,
    "country_code": "CN",
    "latitude": "43.52261730",
    "longitude": "125.65782990",
    "wikiDataId": null
  },
  {
    "id": 20125,
    "name": "Shulan",
    "state_id": 2253,
    "state_code": "JL",
    "country_id": 45,
    "country_code": "CN",
    "latitude": "44.41667000",
    "longitude": "126.95000000",
    "wikiDataId": null
  },
  {
    "id": 158569,
    "name": "Shulan",
    "state_id": 2253,
    "state_code": "JL",
    "country_id": 45,
    "country_code": "CN",
    "latitude": "44.29944400",
    "longitude": "127.17194400",
    "wikiDataId": null
  },
  {
    "id": 20129,
    "name": "Siping",
    "state_id": 2253,
    "state_code": "JL",
    "country_id": 45,
    "country_code": "CN",
    "latitude": "43.16698210",
    "longitude": "124.36473900",
    "wikiDataId": null
  },
  {
    "id": 20133,
    "name": "Songjianghe",
    "state_id": 2253,
    "state_code": "JL",
    "country_id": 45,
    "country_code": "CN",
    "latitude": "42.18590000",
    "longitude": "127.47895000",
    "wikiDataId": null
  },
  {
    "id": 20138,
    "name": "Songyuan",
    "state_id": 2253,
    "state_code": "JL",
    "country_id": 45,
    "country_code": "CN",
    "latitude": "45.13867750",
    "longitude": "124.81708050",
    "wikiDataId": null
  },
  {
    "id": 158598,
    "name": "Taobei",
    "state_id": 2253,
    "state_code": "JL",
    "country_id": 45,
    "country_code": "CN",
    "latitude": "45.63135420",
    "longitude": "122.90018170",
    "wikiDataId": null
  },
  {
    "id": 158601,
    "name": "Taonan",
    "state_id": 2253,
    "state_code": "JL",
    "country_id": 45,
    "country_code": "CN",
    "latitude": "45.44673800",
    "longitude": "122.49362350",
    "wikiDataId": null
  },
  {
    "id": 158572,
    "name": "Tiedong",
    "state_id": 2253,
    "state_code": "JL",
    "country_id": 45,
    "country_code": "CN",
    "latitude": "43.07748770",
    "longitude": "124.55579420",
    "wikiDataId": null
  },
  {
    "id": 158571,
    "name": "Tiexi",
    "state_id": 2253,
    "state_code": "JL",
    "country_id": 45,
    "country_code": "CN",
    "latitude": "43.22326740",
    "longitude": "124.36351240",
    "wikiDataId": null
  },
  {
    "id": 20190,
    "name": "Tonghua",
    "state_id": 2253,
    "state_code": "JL",
    "country_id": 45,
    "country_code": "CN",
    "latitude": "42.12388900",
    "longitude": "125.84833300",
    "wikiDataId": null
  },
  {
    "id": 20191,
    "name": "Tonghua",
    "state_id": 2253,
    "state_code": "JL",
    "country_id": 45,
    "country_code": "CN",
    "latitude": "42.12389000",
    "longitude": "125.84833000",
    "wikiDataId": null
  },
  {
    "id": 158600,
    "name": "Tongyu",
    "state_id": 2253,
    "state_code": "JL",
    "country_id": 45,
    "country_code": "CN",
    "latitude": "44.78474630",
    "longitude": "122.76041100",
    "wikiDataId": null
  },
  {
    "id": 20198,
    "name": "Tumen",
    "state_id": 2253,
    "state_code": "JL",
    "country_id": 45,
    "country_code": "CN",
    "latitude": "42.96611000",
    "longitude": "129.84250000",
    "wikiDataId": null
  },
  {
    "id": 158605,
    "name": "Tumen",
    "state_id": 2253,
    "state_code": "JL",
    "country_id": 45,
    "country_code": "CN",
    "latitude": "42.96532770",
    "longitude": "129.83656260",
    "wikiDataId": null
  },
  {
    "id": 20208,
    "name": "Wangqing",
    "state_id": 2253,
    "state_code": "JL",
    "country_id": 45,
    "country_code": "CN",
    "latitude": "43.32179000",
    "longitude": "129.76342000",
    "wikiDataId": null
  },
  {
    "id": 158610,
    "name": "Wangqing",
    "state_id": 2253,
    "state_code": "JL",
    "country_id": 45,
    "country_code": "CN",
    "latitude": "43.31291680",
    "longitude": "129.76081950",
    "wikiDataId": null
  },
  {
    "id": 158577,
    "name": "Xi'an",
    "state_id": 2253,
    "state_code": "JL",
    "country_id": 45,
    "country_code": "CN",
    "latitude": "42.97245740",
    "longitude": "125.12034220",
    "wikiDataId": null
  },
  {
    "id": 20295,
    "name": "Xinglongshan",
    "state_id": 2253,
    "state_code": "JL",
    "country_id": 45,
    "country_code": "CN",
    "latitude": "43.95611000",
    "longitude": "125.46611000",
    "wikiDataId": null
  },
  {
    "id": 158603,
    "name": "Yanbian",
    "state_id": 2253,
    "state_code": "JL",
    "country_id": 45,
    "country_code": "CN",
    "latitude": "42.90699300",
    "longitude": "129.46358800",
    "wikiDataId": null
  },
  {
    "id": 20339,
    "name": "Yanbian Chaoxianzu Zizhizhou",
    "state_id": 2253,
    "state_code": "JL",
    "country_id": 45,
    "country_code": "CN",
    "latitude": "43.12583000",
    "longitude": "129.12833000",
    "wikiDataId": null
  },
  {
    "id": 20350,
    "name": "Yanji",
    "state_id": 2253,
    "state_code": "JL",
    "country_id": 45,
    "country_code": "CN",
    "latitude": "42.90750000",
    "longitude": "129.50778000",
    "wikiDataId": null
  },
  {
    "id": 158604,
    "name": "Yanji",
    "state_id": 2253,
    "state_code": "JL",
    "country_id": 45,
    "country_code": "CN",
    "latitude": "43.07189860",
    "longitude": "129.37557470",
    "wikiDataId": null
  },
  {
    "id": 20358,
    "name": "Yantongshan",
    "state_id": 2253,
    "state_code": "JL",
    "country_id": 45,
    "country_code": "CN",
    "latitude": "43.29194000",
    "longitude": "126.00944000",
    "wikiDataId": null
  },
  {
    "id": 158574,
    "name": "Yitong",
    "state_id": 2253,
    "state_code": "JL",
    "country_id": 45,
    "country_code": "CN",
    "latitude": "43.34287900",
    "longitude": "125.29878020",
    "wikiDataId": null
  },
  {
    "id": 158566,
    "name": "Yongji",
    "state_id": 2253,
    "state_code": "JL",
    "country_id": 45,
    "country_code": "CN",
    "latitude": "43.66914880",
    "longitude": "126.49230910",
    "wikiDataId": null
  },
  {
    "id": 20406,
    "name": "Yushu",
    "state_id": 2253,
    "state_code": "JL",
    "country_id": 45,
    "country_code": "CN",
    "latitude": "44.80000000",
    "longitude": "126.53333000",
    "wikiDataId": null
  },
  {
    "id": 158559,
    "name": "Yushu",
    "state_id": 2253,
    "state_code": "JL",
    "country_id": 45,
    "country_code": "CN",
    "latitude": "44.83812220",
    "longitude": "126.52714630",
    "wikiDataId": null
  },
  {
    "id": 20438,
    "name": "Zhengjiatun",
    "state_id": 2253,
    "state_code": "JL",
    "country_id": 45,
    "country_code": "CN",
    "latitude": "43.50639000",
    "longitude": "123.50639000",
    "wikiDataId": null
  },
  {
    "id": 20442,
    "name": "Zhenlai",
    "state_id": 2253,
    "state_code": "JL",
    "country_id": 45,
    "country_code": "CN",
    "latitude": "45.84955000",
    "longitude": "123.29730000",
    "wikiDataId": null
  },
  {
    "id": 158599,
    "name": "Zhenlai",
    "state_id": 2253,
    "state_code": "JL",
    "country_id": 45,
    "country_code": "CN",
    "latitude": "45.96456500",
    "longitude": "123.54764260",
    "wikiDataId": null
  }
]