[
  {
    "id": 31614,
    "name": "Jõgeva",
    "state_id": 3565,
    "state_code": "50",
    "country_id": 69,
    "country_code": "EE",
    "latitude": "58.74667000",
    "longitude": "26.39389000",
    "wikiDataId": null
  },
  {
    "id": 31615,
    "name": "Jõgeva vald",
    "state_id": 3565,
    "state_code": "50",
    "country_id": 69,
    "country_code": "EE",
    "latitude": "58.78732000",
    "longitude": "26.38122000",
    "wikiDataId": null
  },
  {
    "id": 31661,
    "name": "Mustvee",
    "state_id": 3565,
    "state_code": "50",
    "country_id": 69,
    "country_code": "EE",
    "latitude": "58.84861000",
    "longitude": "26.93972000",
    "wikiDataId": null
  },
  {
    "id": 31683,
    "name": "Põltsamaa",
    "state_id": 3565,
    "state_code": "50",
    "country_id": 69,
    "country_code": "EE",
    "latitude": "58.65250000",
    "longitude": "25.97056000",
    "wikiDataId": null
  },
  {
    "id": 31684,
    "name": "Põltsamaa vald",
    "state_id": 3565,
    "state_code": "50",
    "country_id": 69,
    "country_code": "EE",
    "latitude": "58.64067000",
    "longitude": "26.00957000",
    "wikiDataId": null
  }
]