[
  {
    "id": 5643,
    "name": "Ailinglaplap",
    "country_id": 137,
    "country_code": "MH",
    "state_code": "ALL",
    "type": "municipality",
    "latitude": "7.50000000",
    "longitude": "168.73333333",
    "iso3166_2": "MH-ALL",
    "native": "Ailinglaplap",
    "timezone": "Pacific/Kwajalein"
  },
  {
    "id": 5644,
    "name": "Ailuk",
    "country_id": 137,
    "country_code": "MH",
    "state_code": "ALK",
    "type": "municipality",
    "latitude": "10.31666667",
    "longitude": "169.93333333",
    "iso3166_2": "MH-ALK",
    "native": "Ailuk",
    "timezone": "Pacific/Kwajalein"
  },
  {
    "id": 5645,
    "name": "Arno",
    "country_id": 137,
    "country_code": "MH",
    "state_code": "ARN",
    "type": "municipality",
    "latitude": "7.08333333",
    "longitude": "171.70000000",
    "iso3166_2": "MH-ARN",
    "native": "Arno",
    "timezone": "Pacific/Kwajalein"
  },
  {
    "id": 5646,
    "name": "Aur",
    "country_id": 137,
    "country_code": "MH",
    "state_code": "AUR",
    "type": "municipality",
    "latitude": "8.20000000",
    "longitude": "171.10000000",
    "iso3166_2": "MH-AUR",
    "native": "Aur",
    "timezone": "Pacific/Kwajalein"
  },
  {
    "id": 5647,
    "name": "Bikini & Kili",
    "country_id": 137,
    "country_code": "MH",
    "state_code": "KIL",
    "type": "municipality",
    "latitude": "11.60000000",
    "longitude": "165.40000000",
    "iso3166_2": "MH-KIL",
    "native": "Bikini & Kili",
    "timezone": "Pacific/Kwajalein"
  },
  {
    "id": 5648,
    "name": "Ebon",
    "country_id": 137,
    "country_code": "MH",
    "state_code": "EBO",
    "type": "municipality",
    "latitude": "4.63333333",
    "longitude": "168.71666667",
    "iso3166_2": "MH-EBO",
    "native": "Ebon",
    "timezone": "Pacific/Kwajalein"
  },
  {
    "id": 5649,
    "name": "Enewetak & Ujelang",
    "country_id": 137,
    "country_code": "MH",
    "state_code": "ENI",
    "type": "municipality",
    "latitude": "11.50000000",
    "longitude": "162.33333333",
    "iso3166_2": "MH-ENI",
    "native": "Enewetak & Ujelang",
    "timezone": "Pacific/Kwajalein"
  },
  {
    "id": 5650,
    "name": "Jabat",
    "country_id": 137,
    "country_code": "MH",
    "state_code": "JAB",
    "type": "municipality",
    "latitude": "7.75000000",
    "longitude": "168.96666667",
    "iso3166_2": "MH-JAB",
    "native": "Jabat",
    "timezone": "Pacific/Kwajalein"
  },
  {
    "id": 5651,
    "name": "Jaluit",
    "country_id": 137,
    "country_code": "MH",
    "state_code": "JAL",
    "type": "municipality",
    "latitude": "6.00000000",
    "longitude": "169.56666667",
    "iso3166_2": "MH-JAL",
    "native": "Jaluit",
    "timezone": "Pacific/Kwajalein"
  },
  {
    "id": 5652,
    "name": "Kwajalein",
    "country_id": 137,
    "country_code": "MH",
    "state_code": "KWA",
    "type": "municipality",
    "latitude": "8.71666667",
    "longitude": "167.73333333",
    "iso3166_2": "MH-KWA",
    "native": "Kwajalein",
    "timezone": "Pacific/Kwajalein"
  },
  {
    "id": 5653,
    "name": "Lae",
    "country_id": 137,
    "country_code": "MH",
    "state_code": "LAE",
    "type": "municipality",
    "latitude": "8.93611111",
    "longitude": "166.23750000",
    "iso3166_2": "MH-LAE",
    "native": "Lae",
    "timezone": "Pacific/Kwajalein"
  },
  {
    "id": 5654,
    "name": "Lib",
    "country_id": 137,
    "country_code": "MH",
    "state_code": "LIB",
    "type": "municipality",
    "latitude": "8.31305556",
    "longitude": "167.37777778",
    "iso3166_2": "MH-LIB",
    "native": "Lib",
    "timezone": "Pacific/Kwajalein"
  },
  {
    "id": 5655,
    "name": "Likiep",
    "country_id": 137,
    "country_code": "MH",
    "state_code": "LIK",
    "type": "municipality",
    "latitude": "9.88498000",
    "longitude": "169.14345000",
    "iso3166_2": "MH-LIK",
    "native": "Likiep",
    "timezone": "Pacific/Kwajalein"
  },
  {
    "id": 5656,
    "name": "Majuro",
    "country_id": 137,
    "country_code": "MH",
    "state_code": "MAJ",
    "type": "municipality",
    "latitude": "7.09180000",
    "longitude": "171.38020000",
    "iso3166_2": "MH-MAJ",
    "native": "Majuro",
    "timezone": "Pacific/Kwajalein"
  },
  {
    "id": 5657,
    "name": "Maloelap",
    "country_id": 137,
    "country_code": "MH",
    "state_code": "MAL",
    "type": "municipality",
    "latitude": "8.75343611",
    "longitude": "171.04888889",
    "iso3166_2": "MH-MAL",
    "native": "Maloelap",
    "timezone": "Pacific/Kwajalein"
  },
  {
    "id": 5658,
    "name": "Mejit",
    "country_id": 137,
    "country_code": "MH",
    "state_code": "MEJ",
    "type": "municipality",
    "latitude": "10.28333333",
    "longitude": "170.88333333",
    "iso3166_2": "MH-MEJ",
    "native": "Mejit",
    "timezone": "Pacific/Kwajalein"
  },
  {
    "id": 5659,
    "name": "Mili",
    "country_id": 137,
    "country_code": "MH",
    "state_code": "MIL",
    "type": "municipality",
    "latitude": "6.12621667",
    "longitude": "171.97998056",
    "iso3166_2": "MH-MIL",
    "native": "Mili",
    "timezone": "Pacific/Kwajalein"
  },
  {
    "id": 5660,
    "name": "Namdrik",
    "country_id": 137,
    "country_code": "MH",
    "state_code": "NMK",
    "type": "municipality",
    "latitude": "5.61666667",
    "longitude": "168.11666667",
    "iso3166_2": "MH-NMK",
    "native": "Namdrik",
    "timezone": "Pacific/Kwajalein"
  },
  {
    "id": 5661,
    "name": "Namu",
    "country_id": 137,
    "country_code": "MH",
    "state_code": "NMU",
    "type": "municipality",
    "latitude": "7.98333333",
    "longitude": "168.17361111",
    "iso3166_2": "MH-NMU",
    "native": "Namu",
    "timezone": "Pacific/Kwajalein"
  },
  {
    "id": 2574,
    "name": "Ralik",
    "country_id": 137,
    "country_code": "MH",
    "state_code": "L",
    "type": "chain",
    "latitude": "8.23081700",
    "longitude": "167.79532240",
    "iso3166_2": "MH-L",
    "native": "Titled",
    "timezone": "Pacific/Kwajalein"
  },
  {
    "id": 2573,
    "name": "Ratak",
    "country_id": 137,
    "country_code": "MH",
    "state_code": "T",
    "type": "chain",
    "latitude": "8.61505500",
    "longitude": "170.82055470",
    "iso3166_2": "MH-T",
    "native": "Ratak",
    "timezone": "Pacific/Kwajalein"
  },
  {
    "id": 5662,
    "name": "Rongelap",
    "country_id": 137,
    "country_code": "MH",
    "state_code": "RON",
    "type": "municipality",
    "latitude": "11.31666667",
    "longitude": "166.78333333",
    "iso3166_2": "MH-RON",
    "native": "Rongelap",
    "timezone": "Pacific/Kwajalein"
  },
  {
    "id": 5663,
    "name": "Ujae",
    "country_id": 137,
    "country_code": "MH",
    "state_code": "UJA",
    "type": "municipality",
    "latitude": "9.05000000",
    "longitude": "165.65000000",
    "iso3166_2": "MH-UJA",
    "native": "Ujae",
    "timezone": "Pacific/Kwajalein"
  },
  {
    "id": 5664,
    "name": "Utrik",
    "country_id": 137,
    "country_code": "MH",
    "state_code": "UTI",
    "type": "municipality",
    "latitude": "11.26730556",
    "longitude": "169.78426111",
    "iso3166_2": "MH-UTI",
    "native": "Utrik",
    "timezone": "Pacific/Kwajalein"
  },
  {
    "id": 5665,
    "name": "Wotho",
    "country_id": 137,
    "country_code": "MH",
    "state_code": "WTH",
    "type": "municipality",
    "latitude": "10.10000000",
    "longitude": "165.96666667",
    "iso3166_2": "MH-WTH",
    "native": "Wotho",
    "timezone": "Pacific/Kwajalein"
  },
  {
    "id": 5666,
    "name": "Wotje",
    "country_id": 137,
    "country_code": "MH",
    "state_code": "WTJ",
    "type": "municipality",
    "latitude": "9.43333333",
    "longitude": "170.01666667",
    "iso3166_2": "MH-WTJ",
    "native": "Wotje",
    "timezone": "Pacific/Kwajalein"
  }
]