[
  {
    "id": 56342,
    "name": "Barito Selatan",
    "state_id": 1794,
    "state_code": "KT",
    "country_id": 102,
    "country_code": "ID",
    "latitude": "-1.86667000",
    "longitude": "114.73333000",
    "wikiDataId": null
  },
  {
    "id": 56343,
    "name": "Barito Timur",
    "state_id": 1794,
    "state_code": "KT",
    "country_id": 102,
    "country_code": "ID",
    "latitude": "-1.93333000",
    "longitude": "115.10000000",
    "wikiDataId": null
  },
  {
    "id": 56344,
    "name": "Barito Utara",
    "state_id": 1794,
    "state_code": "KT",
    "country_id": 102,
    "country_code": "ID",
    "latitude": "-0.98333000",
    "longitude": "115.10000000",
    "wikiDataId": null
  },
  {
    "id": 56415,
    "name": "Gunung Mas",
    "state_id": 1794,
    "state_code": "KT",
    "country_id": 102,
    "country_code": "ID",
    "latitude": "-0.95000000",
    "longitude": "113.50000000",
    "wikiDataId": null
  },
  {
    "id": 56437,
    "name": "Kapuas",
    "state_id": 1794,
    "state_code": "KT",
    "country_id": 102,
    "country_code": "ID",
    "latitude": "-2.01667000",
    "longitude": "114.38333000",
    "wikiDataId": null
  },
  {
    "id": 56443,
    "name": "Katingan",
    "state_id": 1794,
    "state_code": "KT",
    "country_id": 102,
    "country_code": "ID",
    "latitude": "-2.06667000",
    "longitude": "113.40000000",
    "wikiDataId": null
  },
  {
    "id": 56469,
    "name": "Kotawaringin Barat",
    "state_id": 1794,
    "state_code": "KT",
    "country_id": 102,
    "country_code": "ID",
    "latitude": "-2.40000000",
    "longitude": "111.73333000",
    "wikiDataId": null
  },
  {
    "id": 56470,
    "name": "Kotawaringin Timur",
    "state_id": 1794,
    "state_code": "KT",
    "country_id": 102,
    "country_code": "ID",
    "latitude": "-2.08333000",
    "longitude": "112.75000000",
    "wikiDataId": null
  },
  {
    "id": 56823,
    "name": "Kualakapuas",
    "state_id": 1794,
    "state_code": "KT",
    "country_id": 102,
    "country_code": "ID",
    "latitude": "-3.00913000",
    "longitude": "114.38759000",
    "wikiDataId": null
  },
  {
    "id": 56482,
    "name": "Lamandau",
    "state_id": 1794,
    "state_code": "KT",
    "country_id": 102,
    "country_code": "ID",
    "latitude": "-1.83828000",
    "longitude": "111.28690000",
    "wikiDataId": null
  },
  {
    "id": 56547,
    "name": "Murung Raya",
    "state_id": 1794,
    "state_code": "KT",
    "country_id": 102,
    "country_code": "ID",
    "latitude": "-0.01667000",
    "longitude": "114.26667000",
    "wikiDataId": null
  },
  {
    "id": 56897,
    "name": "Palangkaraya",
    "state_id": 1794,
    "state_code": "KT",
    "country_id": 102,
    "country_code": "ID",
    "latitude": "-2.20833000",
    "longitude": "113.91667000",
    "wikiDataId": null
  },
  {
    "id": 56911,
    "name": "Pangkalanbuun",
    "state_id": 1794,
    "state_code": "KT",
    "country_id": 102,
    "country_code": "ID",
    "latitude": "-2.68320000",
    "longitude": "111.62590000",
    "wikiDataId": null
  },
  {
    "id": 56601,
    "name": "Pulang Pisau",
    "state_id": 1794,
    "state_code": "KT",
    "country_id": 102,
    "country_code": "ID",
    "latitude": "-3.11858000",
    "longitude": "113.86230000",
    "wikiDataId": null
  },
  {
    "id": 56961,
    "name": "Sampit",
    "state_id": 1794,
    "state_code": "KT",
    "country_id": 102,
    "country_code": "ID",
    "latitude": "-2.53150000",
    "longitude": "112.94960000",
    "wikiDataId": null
  },
  {
    "id": 56625,
    "name": "Seruyan",
    "state_id": 1794,
    "state_code": "KT",
    "country_id": 102,
    "country_code": "ID",
    "latitude": "-2.33333000",
    "longitude": "112.25000000",
    "wikiDataId": null
  },
  {
    "id": 56646,
    "name": "Sukamara",
    "state_id": 1794,
    "state_code": "KT",
    "country_id": 102,
    "country_code": "ID",
    "latitude": "-2.62675000",
    "longitude": "111.23681000",
    "wikiDataId": null
  }
]