[
  {
    "id": 157818,
    "name": "Anci",
    "state_id": 2280,
    "state_code": "HE",
    "country_id": 45,
    "country_code": "CN",
    "latitude": "39.50458180",
    "longitude": "116.69250160",
    "wikiDataId": null
  },
  {
    "id": 157775,
    "name": "Anguo",
    "state_id": 2280,
    "state_code": "HE",
    "country_id": 45,
    "country_code": "CN",
    "latitude": "38.42774760",
    "longitude": "115.33037980",
    "wikiDataId": null
  },
  {
    "id": 157834,
    "name": "Anping",
    "state_id": 2280,
    "state_code": "HE",
    "country_id": 45,
    "country_code": "CN",
    "latitude": "38.22948810",
    "longitude": "115.51370460",
    "wikiDataId": null
  },
  {
    "id": 157766,
    "name": "Anxin",
    "state_id": 2280,
    "state_code": "HE",
    "country_id": 45,
    "country_code": "CN",
    "latitude": "38.87552550",
    "longitude": "115.87102700",
    "wikiDataId": null
  },
  {
    "id": 157742,
    "name": "Baixiang",
    "state_id": 2280,
    "state_code": "HE",
    "country_id": 45,
    "country_code": "CN",
    "latitude": "37.51406370",
    "longitude": "114.68953280",
    "wikiDataId": null
  },
  {
    "id": 19314,
    "name": "Baoding",
    "state_id": 2280,
    "state_code": "HE",
    "country_id": 45,
    "country_code": "CN",
    "latitude": "38.85797350",
    "longitude": "115.49069600",
    "wikiDataId": null
  },
  {
    "id": 157826,
    "name": "Bazhou",
    "state_id": 2280,
    "state_code": "HE",
    "country_id": 45,
    "country_code": "CN",
    "latitude": "39.07762390",
    "longitude": "116.60393320",
    "wikiDataId": null
  },
  {
    "id": 157713,
    "name": "Beidaihe",
    "state_id": 2280,
    "state_code": "HE",
    "country_id": 45,
    "country_code": "CN",
    "latitude": "39.86057250",
    "longitude": "119.43543730",
    "wikiDataId": null
  },
  {
    "id": 19329,
    "name": "Beidaihehaibin",
    "state_id": 2280,
    "state_code": "HE",
    "country_id": 45,
    "country_code": "CN",
    "latitude": "39.82222000",
    "longitude": "119.51806000",
    "wikiDataId": null
  },
  {
    "id": 19349,
    "name": "Botou",
    "state_id": 2280,
    "state_code": "HE",
    "country_id": 45,
    "country_code": "CN",
    "latitude": "38.06667000",
    "longitude": "116.56660000",
    "wikiDataId": null
  },
  {
    "id": 157814,
    "name": "Botou",
    "state_id": 2280,
    "state_code": "HE",
    "country_id": 45,
    "country_code": "CN",
    "latitude": "38.07642170",
    "longitude": "116.56963930",
    "wikiDataId": null
  },
  {
    "id": 157771,
    "name": "Boye",
    "state_id": 2280,
    "state_code": "HE",
    "country_id": 45,
    "country_code": "CN",
    "latitude": "38.44833530",
    "longitude": "115.44975390",
    "wikiDataId": null
  },
  {
    "id": 157804,
    "name": "Cangxian",
    "state_id": 2280,
    "state_code": "HE",
    "country_id": 45,
    "country_code": "CN",
    "latitude": "38.12548390",
    "longitude": "116.97991420",
    "wikiDataId": null
  },
  {
    "id": 19357,
    "name": "Cangzhou",
    "state_id": 2280,
    "state_code": "HE",
    "country_id": 45,
    "country_code": "CN",
    "latitude": "38.30427960",
    "longitude": "116.85115970",
    "wikiDataId": null
  },
  {
    "id": 19358,
    "name": "Cangzhou Shi",
    "state_id": 2280,
    "state_code": "HE",
    "country_id": 45,
    "country_code": "CN",
    "latitude": "38.31000000",
    "longitude": "116.86000000",
    "wikiDataId": null
  },
  {
    "id": 157703,
    "name": "Caofeidian",
    "state_id": 2280,
    "state_code": "HE",
    "country_id": 45,
    "country_code": "CN",
    "latitude": "39.19304180",
    "longitude": "118.45049560",
    "wikiDataId": null
  },
  {
    "id": 157675,
    "name": "Chang'an",
    "state_id": 2280,
    "state_code": "HE",
    "country_id": 45,
    "country_code": "CN",
    "latitude": "38.03565380",
    "longitude": "114.53178340",
    "wikiDataId": null
  },
  {
    "id": 19368,
    "name": "Changli",
    "state_id": 2280,
    "state_code": "HE",
    "country_id": 45,
    "country_code": "CN",
    "latitude": "39.70417000",
    "longitude": "119.15056000",
    "wikiDataId": null
  },
  {
    "id": 157716,
    "name": "Changli",
    "state_id": 2280,
    "state_code": "HE",
    "country_id": 45,
    "country_code": "CN",
    "latitude": "39.58291020",
    "longitude": "119.20587010",
    "wikiDataId": null
  },
  {
    "id": 157725,
    "name": "Cheng'an",
    "state_id": 2280,
    "state_code": "HE",
    "country_id": 45,
    "country_code": "CN",
    "latitude": "36.39880430",
    "longitude": "114.68701230",
    "wikiDataId": null
  },
  {
    "id": 19385,
    "name": "Chengde",
    "state_id": 2280,
    "state_code": "HE",
    "country_id": 45,
    "country_code": "CN",
    "latitude": "40.95071470",
    "longitude": "117.95670310",
    "wikiDataId": null
  },
  {
    "id": 19386,
    "name": "Chengde Prefecture",
    "state_id": 2280,
    "state_code": "HE",
    "country_id": 45,
    "country_code": "CN",
    "latitude": "40.97000000",
    "longitude": "117.93000000",
    "wikiDataId": null
  },
  {
    "id": 157791,
    "name": "Chicheng",
    "state_id": 2280,
    "state_code": "HE",
    "country_id": 45,
    "country_code": "CN",
    "latitude": "40.95010110",
    "longitude": "115.93229380",
    "wikiDataId": null
  },
  {
    "id": 157781,
    "name": "Chongli",
    "state_id": 2280,
    "state_code": "HE",
    "country_id": 45,
    "country_code": "CN",
    "latitude": "41.04403130",
    "longitude": "115.22375880",
    "wikiDataId": null
  },
  {
    "id": 157728,
    "name": "Cixian",
    "state_id": 2280,
    "state_code": "HE",
    "country_id": 45,
    "country_code": "CN",
    "latitude": "36.36749640",
    "longitude": "114.37174590",
    "wikiDataId": null
  },
  {
    "id": 157719,
    "name": "Congtai",
    "state_id": 2280,
    "state_code": "HE",
    "country_id": 45,
    "country_code": "CN",
    "latitude": "36.65076430",
    "longitude": "114.59740900",
    "wikiDataId": null
  },
  {
    "id": 157825,
    "name": "Dachang",
    "state_id": 2280,
    "state_code": "HE",
    "country_id": 45,
    "country_code": "CN",
    "latitude": "39.88514680",
    "longitude": "116.98038040",
    "wikiDataId": null
  },
  {
    "id": 157823,
    "name": "Daicheng",
    "state_id": 2280,
    "state_code": "HE",
    "country_id": 45,
    "country_code": "CN",
    "latitude": "0.00000000",
    "longitude": "0.00000000",
    "wikiDataId": null
  },
  {
    "id": 157726,
    "name": "Daming",
    "state_id": 2280,
    "state_code": "HE",
    "country_id": 45,
    "country_code": "CN",
    "latitude": "36.28999580",
    "longitude": "115.24157790",
    "wikiDataId": null
  },
  {
    "id": 157760,
    "name": "Dingxing",
    "state_id": 2280,
    "state_code": "HE",
    "country_id": 45,
    "country_code": "CN",
    "latitude": "39.21285580",
    "longitude": "115.74916260",
    "wikiDataId": null
  },
  {
    "id": 19461,
    "name": "Dingzhou",
    "state_id": 2280,
    "state_code": "HE",
    "country_id": 45,
    "country_code": "CN",
    "latitude": "38.51306000",
    "longitude": "114.99556000",
    "wikiDataId": null
  },
  {
    "id": 157774,
    "name": "Dingzhou",
    "state_id": 2280,
    "state_code": "HE",
    "country_id": 45,
    "country_code": "CN",
    "latitude": "38.51121750",
    "longitude": "114.99700440",
    "wikiDataId": null
  },
  {
    "id": 157806,
    "name": "Dongguang",
    "state_id": 2280,
    "state_code": "HE",
    "country_id": 45,
    "country_code": "CN",
    "latitude": "37.88378220",
    "longitude": "116.68456810",
    "wikiDataId": null
  },
  {
    "id": 157722,
    "name": "Feixiang",
    "state_id": 2280,
    "state_code": "HE",
    "country_id": 45,
    "country_code": "CN",
    "latitude": "36.57669610",
    "longitude": "114.82895760",
    "wikiDataId": null
  },
  {
    "id": 157721,
    "name": "Fengfeng Mining",
    "state_id": 2280,
    "state_code": "HE",
    "country_id": 45,
    "country_code": "CN",
    "latitude": "36.42166790",
    "longitude": "114.20712480",
    "wikiDataId": null
  },
  {
    "id": 157701,
    "name": "Fengnan",
    "state_id": 2280,
    "state_code": "HE",
    "country_id": 45,
    "country_code": "CN",
    "latitude": "39.42009060",
    "longitude": "118.07098980",
    "wikiDataId": null
  },
  {
    "id": 157799,
    "name": "Fengning",
    "state_id": 2280,
    "state_code": "HE",
    "country_id": 45,
    "country_code": "CN",
    "latitude": "41.21949640",
    "longitude": "116.63407770",
    "wikiDataId": null
  },
  {
    "id": 19509,
    "name": "Fengrun",
    "state_id": 2280,
    "state_code": "HE",
    "country_id": 45,
    "country_code": "CN",
    "latitude": "39.83333000",
    "longitude": "118.11667000",
    "wikiDataId": null
  },
  {
    "id": 157702,
    "name": "Fengrun",
    "state_id": 2280,
    "state_code": "HE",
    "country_id": 45,
    "country_code": "CN",
    "latitude": "39.83145420",
    "longitude": "118.15556370",
    "wikiDataId": null
  },
  {
    "id": 157837,
    "name": "Fucheng",
    "state_id": 2280,
    "state_code": "HE",
    "country_id": 45,
    "country_code": "CN",
    "latitude": "37.89535880",
    "longitude": "116.28937770",
    "wikiDataId": null
  },
  {
    "id": 157714,
    "name": "Funing",
    "state_id": 2280,
    "state_code": "HE",
    "country_id": 45,
    "country_code": "CN",
    "latitude": "39.88321700",
    "longitude": "119.24436020",
    "wikiDataId": null
  },
  {
    "id": 157759,
    "name": "Fuping",
    "state_id": 2280,
    "state_code": "HE",
    "country_id": 45,
    "country_code": "CN",
    "latitude": "38.89560370",
    "longitude": "114.13543490",
    "wikiDataId": null
  },
  {
    "id": 157720,
    "name": "Fuxing",
    "state_id": 2280,
    "state_code": "HE",
    "country_id": 45,
    "country_code": "CN",
    "latitude": "36.55135530",
    "longitude": "114.32211850",
    "wikiDataId": null
  },
  {
    "id": 157776,
    "name": "Gaobeidian",
    "state_id": 2280,
    "state_code": "HE",
    "country_id": 45,
    "country_code": "CN",
    "latitude": "39.25112920",
    "longitude": "116.03626580",
    "wikiDataId": null
  },
  {
    "id": 157680,
    "name": "Gaocheng",
    "state_id": 2280,
    "state_code": "HE",
    "country_id": 45,
    "country_code": "CN",
    "latitude": "38.02357120",
    "longitude": "114.84060590",
    "wikiDataId": null
  },
  {
    "id": 157762,
    "name": "Gaoyang",
    "state_id": 2280,
    "state_code": "HE",
    "country_id": 45,
    "country_code": "CN",
    "latitude": "38.69068070",
    "longitude": "115.77194840",
    "wikiDataId": null
  },
  {
    "id": 157687,
    "name": "Gaoyi",
    "state_id": 2280,
    "state_code": "HE",
    "country_id": 45,
    "country_code": "CN",
    "latitude": "37.61991030",
    "longitude": "114.60835860",
    "wikiDataId": null
  },
  {
    "id": 157820,
    "name": "Gu'an",
    "state_id": 2280,
    "state_code": "HE",
    "country_id": 45,
    "country_code": "CN",
    "latitude": "39.33726110",
    "longitude": "116.29365010",
    "wikiDataId": null
  },
  {
    "id": 157731,
    "name": "Guangping",
    "state_id": 2280,
    "state_code": "HE",
    "country_id": 45,
    "country_code": "CN",
    "latitude": "36.49490350",
    "longitude": "115.00968410",
    "wikiDataId": null
  },
  {
    "id": 157819,
    "name": "Guangyang",
    "state_id": 2280,
    "state_code": "HE",
    "country_id": 45,
    "country_code": "CN",
    "latitude": "39.53888610",
    "longitude": "116.72249010",
    "wikiDataId": null
  },
  {
    "id": 157747,
    "name": "Guangzong",
    "state_id": 2280,
    "state_code": "HE",
    "country_id": 45,
    "country_code": "CN",
    "latitude": "37.07791940",
    "longitude": "115.18872820",
    "wikiDataId": null
  },
  {
    "id": 157732,
    "name": "Guantao",
    "state_id": 2280,
    "state_code": "HE",
    "country_id": 45,
    "country_code": "CN",
    "latitude": "36.61557930",
    "longitude": "115.28044930",
    "wikiDataId": null
  },
  {
    "id": 157835,
    "name": "Gucheng",
    "state_id": 2280,
    "state_code": "HE",
    "country_id": 45,
    "country_code": "CN",
    "latitude": "37.34903480",
    "longitude": "115.96468180",
    "wikiDataId": null
  },
  {
    "id": 19581,
    "name": "Guye",
    "state_id": 2280,
    "state_code": "HE",
    "country_id": 45,
    "country_code": "CN",
    "latitude": "39.73054000",
    "longitude": "118.44085000",
    "wikiDataId": null
  },
  {
    "id": 157699,
    "name": "Guye",
    "state_id": 2280,
    "state_code": "HE",
    "country_id": 45,
    "country_code": "CN",
    "latitude": "39.73254970",
    "longitude": "118.44083810",
    "wikiDataId": null
  },
  {
    "id": 157784,
    "name": "Guyuan",
    "state_id": 2280,
    "state_code": "HE",
    "country_id": 45,
    "country_code": "CN",
    "latitude": "41.66817410",
    "longitude": "115.68217480",
    "wikiDataId": null
  },
  {
    "id": 157711,
    "name": "Haigang",
    "state_id": 2280,
    "state_code": "HE",
    "country_id": 45,
    "country_code": "CN",
    "latitude": "40.06894630",
    "longitude": "119.57670600",
    "wikiDataId": null
  },
  {
    "id": 157807,
    "name": "Haixing",
    "state_id": 2280,
    "state_code": "HE",
    "country_id": 45,
    "country_code": "CN",
    "latitude": "38.14066620",
    "longitude": "117.49085010",
    "wikiDataId": null
  },
  {
    "id": 19597,
    "name": "Handan",
    "state_id": 2280,
    "state_code": "HE",
    "country_id": 45,
    "country_code": "CN",
    "latitude": "36.61077110",
    "longitude": "114.48570720",
    "wikiDataId": null
  },
  {
    "id": 157718,
    "name": "Hanshan",
    "state_id": 2280,
    "state_code": "HE",
    "country_id": 45,
    "country_code": "CN",
    "latitude": "36.49278990",
    "longitude": "114.44539230",
    "wikiDataId": null
  },
  {
    "id": 19605,
    "name": "Hecun",
    "state_id": 2280,
    "state_code": "HE",
    "country_id": 45,
    "country_code": "CN",
    "latitude": "36.53333000",
    "longitude": "114.11111000",
    "wikiDataId": null
  },
  {
    "id": 157817,
    "name": "Hejian",
    "state_id": 2280,
    "state_code": "HE",
    "country_id": 45,
    "country_code": "CN",
    "latitude": "38.44252930",
    "longitude": "116.09014570",
    "wikiDataId": null
  },
  {
    "id": 19614,
    "name": "Hengshui",
    "state_id": 2280,
    "state_code": "HE",
    "country_id": 45,
    "country_code": "CN",
    "latitude": "37.73643050",
    "longitude": "115.66772290",
    "wikiDataId": null
  },
  {
    "id": 157788,
    "name": "Huai'an",
    "state_id": 2280,
    "state_code": "HE",
    "country_id": 45,
    "country_code": "CN",
    "latitude": "40.54164100",
    "longitude": "114.51790200",
    "wikiDataId": null
  },
  {
    "id": 157789,
    "name": "Huailai",
    "state_id": 2280,
    "state_code": "HE",
    "country_id": 45,
    "country_code": "CN",
    "latitude": "40.34462600",
    "longitude": "115.64007800",
    "wikiDataId": null
  },
  {
    "id": 157816,
    "name": "Huanghua",
    "state_id": 2280,
    "state_code": "HE",
    "country_id": 45,
    "country_code": "CN",
    "latitude": "38.36666700",
    "longitude": "117.33333300",
    "wikiDataId": null
  },
  {
    "id": 157836,
    "name": "Jingxian",
    "state_id": 2280,
    "state_code": "HE",
    "country_id": 45,
    "country_code": "CN",
    "latitude": "37.69055600",
    "longitude": "116.26083300",
    "wikiDataId": null
  },
  {
    "id": 157683,
    "name": "Jingxing",
    "state_id": 2280,
    "state_code": "HE",
    "country_id": 45,
    "country_code": "CN",
    "latitude": "38.03273290",
    "longitude": "114.13547420",
    "wikiDataId": null
  },
  {
    "id": 157678,
    "name": "Jingxing Mining",
    "state_id": 2280,
    "state_code": "HE",
    "country_id": 45,
    "country_code": "CN",
    "latitude": "38.07093060",
    "longitude": "114.05042170",
    "wikiDataId": null
  },
  {
    "id": 157753,
    "name": "Jingxiu",
    "state_id": 2280,
    "state_code": "HE",
    "country_id": 45,
    "country_code": "CN",
    "latitude": "38.88888420",
    "longitude": "115.41439370",
    "wikiDataId": null
  },
  {
    "id": 157695,
    "name": "Jinzhou",
    "state_id": 2280,
    "state_code": "HE",
    "country_id": 45,
    "country_code": "CN",
    "latitude": "37.97747610",
    "longitude": "115.07231990",
    "wikiDataId": null
  },
  {
    "id": 157730,
    "name": "Jize",
    "state_id": 2280,
    "state_code": "HE",
    "country_id": 45,
    "country_code": "CN",
    "latitude": "36.85793210",
    "longitude": "114.84887960",
    "wikiDataId": null
  },
  {
    "id": 157829,
    "name": "Jizhou",
    "state_id": 2280,
    "state_code": "HE",
    "country_id": 45,
    "country_code": "CN",
    "latitude": "37.52658570",
    "longitude": "115.51462950",
    "wikiDataId": null
  },
  {
    "id": 157745,
    "name": "Julu",
    "state_id": 2280,
    "state_code": "HE",
    "country_id": 45,
    "country_code": "CN",
    "latitude": "37.27646070",
    "longitude": "115.05876260",
    "wikiDataId": null
  },
  {
    "id": 157700,
    "name": "Kaiping",
    "state_id": 2280,
    "state_code": "HE",
    "country_id": 45,
    "country_code": "CN",
    "latitude": "39.70510200",
    "longitude": "118.26259370",
    "wikiDataId": null
  },
  {
    "id": 157783,
    "name": "Kangbao",
    "state_id": 2280,
    "state_code": "HE",
    "country_id": 45,
    "country_code": "CN",
    "latitude": "41.76914590",
    "longitude": "114.60016350",
    "wikiDataId": null
  },
  {
    "id": 157800,
    "name": "Kuancheng",
    "state_id": 2280,
    "state_code": "HE",
    "country_id": 45,
    "country_code": "CN",
    "latitude": "40.60948500",
    "longitude": "118.47946310",
    "wikiDataId": null
  },
  {
    "id": 157758,
    "name": "Laishui",
    "state_id": 2280,
    "state_code": "HE",
    "country_id": 45,
    "country_code": "CN",
    "latitude": "39.58884100",
    "longitude": "115.40569660",
    "wikiDataId": null
  },
  {
    "id": 157764,
    "name": "Laiyuan",
    "state_id": 2280,
    "state_code": "HE",
    "country_id": 45,
    "country_code": "CN",
    "latitude": "39.35629770",
    "longitude": "114.74428980",
    "wikiDataId": null
  },
  {
    "id": 19794,
    "name": "Langfang",
    "state_id": 2280,
    "state_code": "HE",
    "country_id": 45,
    "country_code": "CN",
    "latitude": "39.53020550",
    "longitude": "116.69261340",
    "wikiDataId": null
  },
  {
    "id": 19795,
    "name": "Langfang Shi",
    "state_id": 2280,
    "state_code": "HE",
    "country_id": 45,
    "country_code": "CN",
    "latitude": "39.51667000",
    "longitude": "116.68333000",
    "wikiDataId": null
  },
  {
    "id": 157705,
    "name": "Laoting",
    "state_id": 2280,
    "state_code": "HE",
    "country_id": 45,
    "country_code": "CN",
    "latitude": "39.34942920",
    "longitude": "118.94091220",
    "wikiDataId": null
  },
  {
    "id": 157754,
    "name": "Lianchi",
    "state_id": 2280,
    "state_code": "HE",
    "country_id": 45,
    "country_code": "CN",
    "latitude": "38.85957130",
    "longitude": "115.51469550",
    "wikiDataId": null
  },
  {
    "id": 157740,
    "name": "Lincheng",
    "state_id": 2280,
    "state_code": "HE",
    "country_id": 45,
    "country_code": "CN",
    "latitude": "37.46584760",
    "longitude": "114.34044520",
    "wikiDataId": null
  },
  {
    "id": 157686,
    "name": "Lingshou",
    "state_id": 2280,
    "state_code": "HE",
    "country_id": 45,
    "country_code": "CN",
    "latitude": "38.52073910",
    "longitude": "114.20420910",
    "wikiDataId": null
  },
  {
    "id": 19851,
    "name": "Linshui",
    "state_id": 2280,
    "state_code": "HE",
    "country_id": 45,
    "country_code": "CN",
    "latitude": "36.42472000",
    "longitude": "114.20472000",
    "wikiDataId": null
  },
  {
    "id": 19853,
    "name": "Linxi",
    "state_id": 2280,
    "state_code": "HE",
    "country_id": 45,
    "country_code": "CN",
    "latitude": "39.71183000",
    "longitude": "118.44954000",
    "wikiDataId": null
  },
  {
    "id": 157750,
    "name": "Linxi",
    "state_id": 2280,
    "state_code": "HE",
    "country_id": 45,
    "country_code": "CN",
    "latitude": "36.84750470",
    "longitude": "115.50013520",
    "wikiDataId": null
  },
  {
    "id": 157724,
    "name": "Linzhang",
    "state_id": 2280,
    "state_code": "HE",
    "country_id": 45,
    "country_code": "CN",
    "latitude": "36.26336250",
    "longitude": "114.54166260",
    "wikiDataId": null
  },
  {
    "id": 157769,
    "name": "Lixian",
    "state_id": 2280,
    "state_code": "HE",
    "country_id": 45,
    "country_code": "CN",
    "latitude": "38.53372040",
    "longitude": "115.66643570",
    "wikiDataId": null
  },
  {
    "id": 157798,
    "name": "Longhua",
    "state_id": 2280,
    "state_code": "HE",
    "country_id": 45,
    "country_code": "CN",
    "latitude": "41.48593070",
    "longitude": "117.61542800",
    "wikiDataId": null
  },
  {
    "id": 157743,
    "name": "Longyao",
    "state_id": 2280,
    "state_code": "HE",
    "country_id": 45,
    "country_code": "CN",
    "latitude": "37.35277450",
    "longitude": "114.77393760",
    "wikiDataId": null
  },
  {
    "id": 19878,
    "name": "Luancheng",
    "state_id": 2280,
    "state_code": "HE",
    "country_id": 45,
    "country_code": "CN",
    "latitude": "37.87917000",
    "longitude": "114.65167000",
    "wikiDataId": null
  },
  {
    "id": 157682,
    "name": "Luancheng",
    "state_id": 2280,
    "state_code": "HE",
    "country_id": 45,
    "country_code": "CN",
    "latitude": "39.75190630",
    "longitude": "118.65022360",
    "wikiDataId": null
  },
  {
    "id": 157704,
    "name": "Luannan",
    "state_id": 2280,
    "state_code": "HE",
    "country_id": 45,
    "country_code": "CN",
    "latitude": "39.45525850",
    "longitude": "118.60429250",
    "wikiDataId": null
  },
  {
    "id": 157797,
    "name": "Luanping",
    "state_id": 2280,
    "state_code": "HE",
    "country_id": 45,
    "country_code": "CN",
    "latitude": "40.93921590",
    "longitude": "117.32639660",
    "wikiDataId": null
  },
  {
    "id": 157710,
    "name": "Luanzhou",
    "state_id": 2280,
    "state_code": "HE",
    "country_id": 45,
    "country_code": "CN",
    "latitude": "39.76296760",
    "longitude": "118.65880850",
    "wikiDataId": null
  },
  {
    "id": 157698,
    "name": "Lubei",
    "state_id": 2280,
    "state_code": "HE",
    "country_id": 45,
    "country_code": "CN",
    "latitude": "39.62315990",
    "longitude": "118.19452870",
    "wikiDataId": null
  },
  {
    "id": 157717,
    "name": "Lulong",
    "state_id": 2280,
    "state_code": "HE",
    "country_id": 45,
    "country_code": "CN",
    "latitude": "39.93482520",
    "longitude": "118.98628040",
    "wikiDataId": null
  },
  {
    "id": 157697,
    "name": "Lunan",
    "state_id": 2280,
    "state_code": "HE",
    "country_id": 45,
    "country_code": "CN",
    "latitude": "39.62364150",
    "longitude": "118.14801120",
    "wikiDataId": null
  },
  {
    "id": 157681,
    "name": "Luquan",
    "state_id": 2280,
    "state_code": "HE",
    "country_id": 45,
    "country_code": "CN",
    "latitude": "38.08558910",
    "longitude": "114.30447950",
    "wikiDataId": null
  },
  {
    "id": 157755,
    "name": "Mancheng",
    "state_id": 2280,
    "state_code": "HE",
    "country_id": 45,
    "country_code": "CN",
    "latitude": "38.92749660",
    "longitude": "115.28358200",
    "wikiDataId": null
  },
  {
    "id": 157813,
    "name": "Mengcun",
    "state_id": 2280,
    "state_code": "HE",
    "country_id": 45,
    "country_code": "CN",
    "latitude": "38.05249800",
    "longitude": "117.09817780",
    "wikiDataId": null
  },
  {
    "id": 19940,
    "name": "Nangong",
    "state_id": 2280,
    "state_code": "HE",
    "country_id": 45,
    "country_code": "CN",
    "latitude": "37.35806000",
    "longitude": "115.37444000",
    "wikiDataId": null
  },
  {
    "id": 157751,
    "name": "Nangong",
    "state_id": 2280,
    "state_code": "HE",
    "country_id": 45,
    "country_code": "CN",
    "latitude": "37.35607720",
    "longitude": "115.39203090",
    "wikiDataId": null
  },
  {
    "id": 157739,
    "name": "Nanhe",
    "state_id": 2280,
    "state_code": "HE",
    "country_id": 45,
    "country_code": "CN",
    "latitude": "37.00559190",
    "longitude": "114.67929900",
    "wikiDataId": null
  },
  {
    "id": 157810,
    "name": "Nanpi",
    "state_id": 2280,
    "state_code": "HE",
    "country_id": 45,
    "country_code": "CN",
    "latitude": "38.00917660",
    "longitude": "116.85032760",
    "wikiDataId": null
  },
  {
    "id": 157741,
    "name": "Neiqiu",
    "state_id": 2280,
    "state_code": "HE",
    "country_id": 45,
    "country_code": "CN",
    "latitude": "37.30404810",
    "longitude": "114.41594790",
    "wikiDataId": null
  },
  {
    "id": 157744,
    "name": "Ningjin",
    "state_id": 2280,
    "state_code": "HE",
    "country_id": 45,
    "country_code": "CN",
    "latitude": "37.61807440",
    "longitude": "114.91454050",
    "wikiDataId": null
  },
  {
    "id": 149191,
    "name": "Panzhuang",
    "state_id": 2280,
    "state_code": "HE",
    "country_id": 45,
    "country_code": "CN",
    "latitude": "39.33943000",
    "longitude": "117.46820000",
    "wikiDataId": null
  },
  {
    "id": 19976,
    "name": "Pengcheng",
    "state_id": 2280,
    "state_code": "HE",
    "country_id": 45,
    "country_code": "CN",
    "latitude": "36.43111000",
    "longitude": "114.17000000",
    "wikiDataId": null
  },
  {
    "id": 157802,
    "name": "Pingquan",
    "state_id": 2280,
    "state_code": "HE",
    "country_id": 45,
    "country_code": "CN",
    "latitude": "41.00581550",
    "longitude": "118.68929010",
    "wikiDataId": null
  },
  {
    "id": 157691,
    "name": "Pingshan",
    "state_id": 2280,
    "state_code": "HE",
    "country_id": 45,
    "country_code": "CN",
    "latitude": "38.40651920",
    "longitude": "113.86795470",
    "wikiDataId": null
  },
  {
    "id": 157748,
    "name": "Pingxiang",
    "state_id": 2280,
    "state_code": "HE",
    "country_id": 45,
    "country_code": "CN",
    "latitude": "37.06343550",
    "longitude": "115.02548940",
    "wikiDataId": null
  },
  {
    "id": 157709,
    "name": "Qian'an",
    "state_id": 2280,
    "state_code": "HE",
    "country_id": 45,
    "country_code": "CN",
    "latitude": "39.99784160",
    "longitude": "118.69498990",
    "wikiDataId": null
  },
  {
    "id": 157706,
    "name": "Qianxi",
    "state_id": 2280,
    "state_code": "HE",
    "country_id": 45,
    "country_code": "CN",
    "latitude": "40.24285140",
    "longitude": "118.36649930",
    "wikiDataId": null
  },
  {
    "id": 157777,
    "name": "Qiaodong",
    "state_id": 2280,
    "state_code": "HE",
    "country_id": 45,
    "country_code": "CN",
    "latitude": "40.77061640",
    "longitude": "114.91149270",
    "wikiDataId": null
  },
  {
    "id": 157676,
    "name": "Qiaoxi",
    "state_id": 2280,
    "state_code": "HE",
    "country_id": 45,
    "country_code": "CN",
    "latitude": "38.02761020",
    "longitude": "114.43955470",
    "wikiDataId": null
  },
  {
    "id": 157749,
    "name": "Qinghe",
    "state_id": 2280,
    "state_code": "HE",
    "country_id": 45,
    "country_code": "CN",
    "latitude": "37.04924680",
    "longitude": "115.66239660",
    "wikiDataId": null
  },
  {
    "id": 157715,
    "name": "Qinglong",
    "state_id": 2280,
    "state_code": "HE",
    "country_id": 45,
    "country_code": "CN",
    "latitude": "40.36728080",
    "longitude": "119.12872480",
    "wikiDataId": null
  },
  {
    "id": 157805,
    "name": "Qingxian",
    "state_id": 2280,
    "state_code": "HE",
    "country_id": 45,
    "country_code": "CN",
    "latitude": "38.57429050",
    "longitude": "116.81217310",
    "wikiDataId": null
  },
  {
    "id": 157756,
    "name": "Qingyuan",
    "state_id": 2280,
    "state_code": "HE",
    "country_id": 45,
    "country_code": "CN",
    "latitude": "38.72283510",
    "longitude": "115.52866960",
    "wikiDataId": null
  },
  {
    "id": 20029,
    "name": "Qinhuangdao",
    "state_id": 2280,
    "state_code": "HE",
    "country_id": 45,
    "country_code": "CN",
    "latitude": "39.93957240",
    "longitude": "119.58941290",
    "wikiDataId": null
  },
  {
    "id": 157729,
    "name": "Qiuxian",
    "state_id": 2280,
    "state_code": "HE",
    "country_id": 45,
    "country_code": "CN",
    "latitude": "36.81217190",
    "longitude": "115.17519290",
    "wikiDataId": null
  },
  {
    "id": 157768,
    "name": "Quyang",
    "state_id": 2280,
    "state_code": "HE",
    "country_id": 45,
    "country_code": "CN",
    "latitude": "38.62187490",
    "longitude": "114.72544690",
    "wikiDataId": null
  },
  {
    "id": 157734,
    "name": "Quzhou",
    "state_id": 2280,
    "state_code": "HE",
    "country_id": 45,
    "country_code": "CN",
    "latitude": "36.76989860",
    "longitude": "114.95852430",
    "wikiDataId": null
  },
  {
    "id": 157833,
    "name": "Raoyang",
    "state_id": 2280,
    "state_code": "HE",
    "country_id": 45,
    "country_code": "CN",
    "latitude": "38.23316770",
    "longitude": "115.72057300",
    "wikiDataId": null
  },
  {
    "id": 157815,
    "name": "Renqiu",
    "state_id": 2280,
    "state_code": "HE",
    "country_id": 45,
    "country_code": "CN",
    "latitude": "38.70637670",
    "longitude": "116.10622030",
    "wikiDataId": null
  },
  {
    "id": 20040,
    "name": "Renqiu",
    "state_id": 2280,
    "state_code": "HE",
    "country_id": 45,
    "country_code": "CN",
    "latitude": "38.69889000",
    "longitude": "116.09361000",
    "wikiDataId": null
  },
  {
    "id": 157738,
    "name": "Renze",
    "state_id": 2280,
    "state_code": "HE",
    "country_id": 45,
    "country_code": "CN",
    "latitude": "37.12637750",
    "longitude": "114.68008560",
    "wikiDataId": null
  },
  {
    "id": 157763,
    "name": "Rongcheng",
    "state_id": 2280,
    "state_code": "HE",
    "country_id": 45,
    "country_code": "CN",
    "latitude": "39.04518730",
    "longitude": "115.85727630",
    "wikiDataId": null
  },
  {
    "id": 157827,
    "name": "Sanhe",
    "state_id": 2280,
    "state_code": "HE",
    "country_id": 45,
    "country_code": "CN",
    "latitude": "39.98155520",
    "longitude": "117.07148730",
    "wikiDataId": null
  },
  {
    "id": 157752,
    "name": "Shahe",
    "state_id": 2280,
    "state_code": "HE",
    "country_id": 45,
    "country_code": "CN",
    "latitude": "36.86162650",
    "longitude": "114.51129150",
    "wikiDataId": null
  },
  {
    "id": 20060,
    "name": "Shahecheng",
    "state_id": 2280,
    "state_code": "HE",
    "country_id": 45,
    "country_code": "CN",
    "latitude": "36.93833000",
    "longitude": "114.50583000",
    "wikiDataId": null
  },
  {
    "id": 157785,
    "name": "Shangyi",
    "state_id": 2280,
    "state_code": "HE",
    "country_id": 45,
    "country_code": "CN",
    "latitude": "41.11606710",
    "longitude": "114.15937660",
    "wikiDataId": null
  },
  {
    "id": 20071,
    "name": "Shanhaiguan",
    "state_id": 2280,
    "state_code": "HE",
    "country_id": 45,
    "country_code": "CN",
    "latitude": "40.00250000",
    "longitude": "119.74889000",
    "wikiDataId": null
  },
  {
    "id": 157712,
    "name": "Shanhaiguan",
    "state_id": 2280,
    "state_code": "HE",
    "country_id": 45,
    "country_code": "CN",
    "latitude": "39.99878770",
    "longitude": "119.75636710",
    "wikiDataId": null
  },
  {
    "id": 157688,
    "name": "Shenze",
    "state_id": 2280,
    "state_code": "HE",
    "country_id": 45,
    "country_code": "CN",
    "latitude": "38.20102950",
    "longitude": "115.21935590",
    "wikiDataId": null
  },
  {
    "id": 157838,
    "name": "Shenzhou",
    "state_id": 2280,
    "state_code": "HE",
    "country_id": 45,
    "country_code": "CN",
    "latitude": "37.95262830",
    "longitude": "115.62672370",
    "wikiDataId": null
  },
  {
    "id": 157727,
    "name": "Shexian",
    "state_id": 2280,
    "state_code": "HE",
    "country_id": 45,
    "country_code": "CN",
    "latitude": "36.56948460",
    "longitude": "113.66960100",
    "wikiDataId": null
  },
  {
    "id": 20095,
    "name": "Shijiaochang",
    "state_id": 2280,
    "state_code": "HE",
    "country_id": 45,
    "country_code": "CN",
    "latitude": "28.92444000",
    "longitude": "106.75611000",
    "wikiDataId": null
  },
  {
    "id": 20096,
    "name": "Shijiazhuang",
    "state_id": 2280,
    "state_code": "HE",
    "country_id": 45,
    "country_code": "CN",
    "latitude": "38.04297420",
    "longitude": "114.50883850",
    "wikiDataId": null
  },
  {
    "id": 20097,
    "name": "Shijiazhuang Shi",
    "state_id": 2280,
    "state_code": "HE",
    "country_id": 45,
    "country_code": "CN",
    "latitude": "38.04000000",
    "longitude": "114.47000000",
    "wikiDataId": null
  },
  {
    "id": 157793,
    "name": "Shuangluan",
    "state_id": 2280,
    "state_code": "HE",
    "country_id": 45,
    "country_code": "CN",
    "latitude": "40.98225580",
    "longitude": "117.80265820",
    "wikiDataId": null
  },
  {
    "id": 157792,
    "name": "Shuangqiao",
    "state_id": 2280,
    "state_code": "HE",
    "country_id": 45,
    "country_code": "CN",
    "latitude": "40.94357760",
    "longitude": "117.96328570",
    "wikiDataId": null
  },
  {
    "id": 157770,
    "name": "Shunping",
    "state_id": 2280,
    "state_code": "HE",
    "country_id": 45,
    "country_code": "CN",
    "latitude": "38.83641790",
    "longitude": "115.12757190",
    "wikiDataId": null
  },
  {
    "id": 20135,
    "name": "Songling",
    "state_id": 2280,
    "state_code": "HE",
    "country_id": 45,
    "country_code": "CN",
    "latitude": "40.29303000",
    "longitude": "118.26908000",
    "wikiDataId": null
  },
  {
    "id": 157809,
    "name": "Suning",
    "state_id": 2280,
    "state_code": "HE",
    "country_id": 45,
    "country_code": "CN",
    "latitude": "38.42641870",
    "longitude": "115.82653220",
    "wikiDataId": null
  },
  {
    "id": 20168,
    "name": "Tangjiazhuang",
    "state_id": 2280,
    "state_code": "HE",
    "country_id": 45,
    "country_code": "CN",
    "latitude": "39.74326000",
    "longitude": "118.45099000",
    "wikiDataId": null
  },
  {
    "id": 20171,
    "name": "Tangshan",
    "state_id": 2280,
    "state_code": "HE",
    "country_id": 45,
    "country_code": "CN",
    "latitude": "39.62959510",
    "longitude": "118.17387120",
    "wikiDataId": null
  },
  {
    "id": 20172,
    "name": "Tangshan Shi",
    "state_id": 2280,
    "state_code": "HE",
    "country_id": 45,
    "country_code": "CN",
    "latitude": "39.63000000",
    "longitude": "118.18000000",
    "wikiDataId": null
  },
  {
    "id": 157761,
    "name": "Tangxian",
    "state_id": 2280,
    "state_code": "HE",
    "country_id": 45,
    "country_code": "CN",
    "latitude": "38.90665300",
    "longitude": "114.79690010",
    "wikiDataId": null
  },
  {
    "id": 157828,
    "name": "Taocheng",
    "state_id": 2280,
    "state_code": "HE",
    "country_id": 45,
    "country_code": "CN",
    "latitude": "37.71470990",
    "longitude": "115.66498200",
    "wikiDataId": null
  },
  {
    "id": 20178,
    "name": "Tianchang",
    "state_id": 2280,
    "state_code": "HE",
    "country_id": 45,
    "country_code": "CN",
    "latitude": "37.99806000",
    "longitude": "114.01556000",
    "wikiDataId": null
  },
  {
    "id": 157765,
    "name": "Wangdu",
    "state_id": 2280,
    "state_code": "HE",
    "country_id": 45,
    "country_code": "CN",
    "latitude": "38.65491570",
    "longitude": "115.15429640",
    "wikiDataId": null
  },
  {
    "id": 157780,
    "name": "Wanquan",
    "state_id": 2280,
    "state_code": "HE",
    "country_id": 45,
    "country_code": "CN",
    "latitude": "40.84743660",
    "longitude": "114.59771400",
    "wikiDataId": null
  },
  {
    "id": 157801,
    "name": "Weichang",
    "state_id": 2280,
    "state_code": "HE",
    "country_id": 45,
    "country_code": "CN",
    "latitude": "42.11530920",
    "longitude": "117.58036210",
    "wikiDataId": null
  },
  {
    "id": 157733,
    "name": "Weixian",
    "state_id": 2280,
    "state_code": "HE",
    "country_id": 45,
    "country_code": "CN",
    "latitude": "36.98206740",
    "longitude": "115.26660890",
    "wikiDataId": null
  },
  {
    "id": 157824,
    "name": "Wen'an",
    "state_id": 2280,
    "state_code": "HE",
    "country_id": 45,
    "country_code": "CN",
    "latitude": "38.89839780",
    "longitude": "116.45074480",
    "wikiDataId": null
  },
  {
    "id": 157735,
    "name": "Wu'an",
    "state_id": 2280,
    "state_code": "HE",
    "country_id": 45,
    "country_code": "CN",
    "latitude": "36.75363220",
    "longitude": "114.11623990",
    "wikiDataId": null
  },
  {
    "id": 157690,
    "name": "Wuji",
    "state_id": 2280,
    "state_code": "HE",
    "country_id": 45,
    "country_code": "CN",
    "latitude": "38.16910550",
    "longitude": "114.93874070",
    "wikiDataId": null
  },
  {
    "id": 157832,
    "name": "Wuqiang",
    "state_id": 2280,
    "state_code": "HE",
    "country_id": 45,
    "country_code": "CN",
    "latitude": "38.04436290",
    "longitude": "115.91417810",
    "wikiDataId": null
  },
  {
    "id": 157811,
    "name": "Wuqiao",
    "state_id": 2280,
    "state_code": "HE",
    "country_id": 45,
    "country_code": "CN",
    "latitude": "37.62590620",
    "longitude": "116.38637590",
    "wikiDataId": null
  },
  {
    "id": 157831,
    "name": "Wuyi",
    "state_id": 2280,
    "state_code": "HE",
    "country_id": 45,
    "country_code": "CN",
    "latitude": "37.81882110",
    "longitude": "115.94382520",
    "wikiDataId": null
  },
  {
    "id": 157779,
    "name": "Xiahuayuan",
    "state_id": 2280,
    "state_code": "HE",
    "country_id": 45,
    "country_code": "CN",
    "latitude": "40.50136780",
    "longitude": "115.28097800",
    "wikiDataId": null
  },
  {
    "id": 157736,
    "name": "Xiangdu",
    "state_id": 2280,
    "state_code": "HE",
    "country_id": 45,
    "country_code": "CN",
    "latitude": "37.07232100",
    "longitude": "114.50106140",
    "wikiDataId": null
  },
  {
    "id": 157822,
    "name": "Xianghe",
    "state_id": 2280,
    "state_code": "HE",
    "country_id": 45,
    "country_code": "CN",
    "latitude": "39.73625590",
    "longitude": "117.03039340",
    "wikiDataId": null
  },
  {
    "id": 157812,
    "name": "Xianxian",
    "state_id": 2280,
    "state_code": "HE",
    "country_id": 45,
    "country_code": "CN",
    "latitude": "38.17810840",
    "longitude": "116.12644730",
    "wikiDataId": null
  },
  {
    "id": 157737,
    "name": "Xindu",
    "state_id": 2280,
    "state_code": "HE",
    "country_id": 45,
    "country_code": "CN",
    "latitude": "37.09236070",
    "longitude": "114.46220190",
    "wikiDataId": null
  },
  {
    "id": 157796,
    "name": "Xinglong",
    "state_id": 2280,
    "state_code": "HE",
    "country_id": 45,
    "country_code": "CN",
    "latitude": "40.46596160",
    "longitude": "117.79211220",
    "wikiDataId": null
  },
  {
    "id": 20297,
    "name": "Xingtai",
    "state_id": 2280,
    "state_code": "HE",
    "country_id": 45,
    "country_code": "CN",
    "latitude": "37.06165190",
    "longitude": "114.49974600",
    "wikiDataId": null
  },
  {
    "id": 157685,
    "name": "Xingtang",
    "state_id": 2280,
    "state_code": "HE",
    "country_id": 45,
    "country_code": "CN",
    "latitude": "38.43910850",
    "longitude": "114.54762230",
    "wikiDataId": null
  },
  {
    "id": 157746,
    "name": "Xinhe",
    "state_id": 2280,
    "state_code": "HE",
    "country_id": 45,
    "country_code": "CN",
    "latitude": "37.49069460",
    "longitude": "115.24874800",
    "wikiDataId": null
  },
  {
    "id": 157677,
    "name": "Xinhua",
    "state_id": 2280,
    "state_code": "HE",
    "country_id": 45,
    "country_code": "CN",
    "latitude": "38.06666700",
    "longitude": "114.46805600",
    "wikiDataId": null
  },
  {
    "id": 20301,
    "name": "Xinji",
    "state_id": 2280,
    "state_code": "HE",
    "country_id": 45,
    "country_code": "CN",
    "latitude": "37.90278000",
    "longitude": "115.20361000",
    "wikiDataId": null
  },
  {
    "id": 157694,
    "name": "Xinji",
    "state_id": 2280,
    "state_code": "HE",
    "country_id": 45,
    "country_code": "CN",
    "latitude": "37.88374340",
    "longitude": "115.25378350",
    "wikiDataId": null
  },
  {
    "id": 157696,
    "name": "Xinle",
    "state_id": 2280,
    "state_code": "HE",
    "country_id": 45,
    "country_code": "CN",
    "latitude": "38.34492620",
    "longitude": "114.67911240",
    "wikiDataId": null
  },
  {
    "id": 157772,
    "name": "Xiongxian",
    "state_id": 2280,
    "state_code": "HE",
    "country_id": 45,
    "country_code": "CN",
    "latitude": "38.98450540",
    "longitude": "116.09882540",
    "wikiDataId": null
  },
  {
    "id": 157778,
    "name": "Xuanhua",
    "state_id": 2280,
    "state_code": "HE",
    "country_id": 45,
    "country_code": "CN",
    "latitude": "40.60672170",
    "longitude": "115.07219500",
    "wikiDataId": null
  },
  {
    "id": 157757,
    "name": "Xushui",
    "state_id": 2280,
    "state_code": "HE",
    "country_id": 45,
    "country_code": "CN",
    "latitude": "39.03783090",
    "longitude": "115.56188110",
    "wikiDataId": null
  },
  {
    "id": 157787,
    "name": "Yangyuan",
    "state_id": 2280,
    "state_code": "HE",
    "country_id": 45,
    "country_code": "CN",
    "latitude": "40.14003540",
    "longitude": "114.42451210",
    "wikiDataId": null
  },
  {
    "id": 157808,
    "name": "Yanshan",
    "state_id": 2280,
    "state_code": "HE",
    "country_id": 45,
    "country_code": "CN",
    "latitude": "37.98131890",
    "longitude": "117.31072820",
    "wikiDataId": null
  },
  {
    "id": 157794,
    "name": "Yingshouyingzi Mining",
    "state_id": 2280,
    "state_code": "HE",
    "country_id": 45,
    "country_code": "CN",
    "latitude": "40.53243810",
    "longitude": "117.69382970",
    "wikiDataId": null
  },
  {
    "id": 157767,
    "name": "Yixian",
    "state_id": 2280,
    "state_code": "HE",
    "country_id": 45,
    "country_code": "CN",
    "latitude": "39.34670830",
    "longitude": "115.25090650",
    "wikiDataId": null
  },
  {
    "id": 157723,
    "name": "Yongnian",
    "state_id": 2280,
    "state_code": "HE",
    "country_id": 45,
    "country_code": "CN",
    "latitude": "36.78748820",
    "longitude": "114.63991210",
    "wikiDataId": null
  },
  {
    "id": 157821,
    "name": "Yongqing",
    "state_id": 2280,
    "state_code": "HE",
    "country_id": 45,
    "country_code": "CN",
    "latitude": "39.32082130",
    "longitude": "116.49016360",
    "wikiDataId": null
  },
  {
    "id": 157692,
    "name": "Yuanshi",
    "state_id": 2280,
    "state_code": "HE",
    "country_id": 45,
    "country_code": "CN",
    "latitude": "37.76052060",
    "longitude": "114.52152850",
    "wikiDataId": null
  },
  {
    "id": 157679,
    "name": "Yuhua",
    "state_id": 2280,
    "state_code": "HE",
    "country_id": 45,
    "country_code": "CN",
    "latitude": "38.00989680",
    "longitude": "114.58146910",
    "wikiDataId": null
  },
  {
    "id": 157803,
    "name": "Yunhe",
    "state_id": 2280,
    "state_code": "HE",
    "country_id": 45,
    "country_code": "CN",
    "latitude": "38.31166700",
    "longitude": "116.85000000",
    "wikiDataId": null
  },
  {
    "id": 157707,
    "name": "Yutian",
    "state_id": 2280,
    "state_code": "HE",
    "country_id": 45,
    "country_code": "CN",
    "latitude": "39.90040160",
    "longitude": "117.73233480",
    "wikiDataId": null
  },
  {
    "id": 157786,
    "name": "Yuxian",
    "state_id": 2280,
    "state_code": "HE",
    "country_id": 45,
    "country_code": "CN",
    "latitude": "39.89607680",
    "longitude": "114.71830170",
    "wikiDataId": null
  },
  {
    "id": 157689,
    "name": "Zanhuang",
    "state_id": 2280,
    "state_code": "HE",
    "country_id": 45,
    "country_code": "CN",
    "latitude": "37.60539290",
    "longitude": "114.29546280",
    "wikiDataId": null
  },
  {
    "id": 157830,
    "name": "Zaoqiang",
    "state_id": 2280,
    "state_code": "HE",
    "country_id": 45,
    "country_code": "CN",
    "latitude": "37.43249340",
    "longitude": "115.72246140",
    "wikiDataId": null
  },
  {
    "id": 157782,
    "name": "Zhangbei",
    "state_id": 2280,
    "state_code": "HE",
    "country_id": 45,
    "country_code": "CN",
    "latitude": "41.28777500",
    "longitude": "114.76929500",
    "wikiDataId": null
  },
  {
    "id": 20422,
    "name": "Zhangjiakou",
    "state_id": 2280,
    "state_code": "HE",
    "country_id": 45,
    "country_code": "CN",
    "latitude": "40.81714330",
    "longitude": "114.87828610",
    "wikiDataId": null
  },
  {
    "id": 20423,
    "name": "Zhangjiakou Shi",
    "state_id": 2280,
    "state_code": "HE",
    "country_id": 45,
    "country_code": "CN",
    "latitude": "40.83333000",
    "longitude": "114.93333000",
    "wikiDataId": null
  },
  {
    "id": 20424,
    "name": "Zhangjiakou Shi Xuanhua Qu",
    "state_id": 2280,
    "state_code": "HE",
    "country_id": 45,
    "country_code": "CN",
    "latitude": "40.61028000",
    "longitude": "115.04472000",
    "wikiDataId": null
  },
  {
    "id": 20432,
    "name": "Zhaogezhuang",
    "state_id": 2280,
    "state_code": "HE",
    "country_id": 45,
    "country_code": "CN",
    "latitude": "39.76538000",
    "longitude": "118.41191000",
    "wikiDataId": null
  },
  {
    "id": 157693,
    "name": "Zhaoxian",
    "state_id": 2280,
    "state_code": "HE",
    "country_id": 45,
    "country_code": "CN",
    "latitude": "37.74913760",
    "longitude": "114.76996190",
    "wikiDataId": null
  },
  {
    "id": 157684,
    "name": "Zhengding",
    "state_id": 2280,
    "state_code": "HE",
    "country_id": 45,
    "country_code": "CN",
    "latitude": "38.14397480",
    "longitude": "114.56326350",
    "wikiDataId": null
  },
  {
    "id": 157790,
    "name": "Zhuolu",
    "state_id": 2280,
    "state_code": "HE",
    "country_id": 45,
    "country_code": "CN",
    "latitude": "40.09095100",
    "longitude": "115.23987300",
    "wikiDataId": null
  },
  {
    "id": 157773,
    "name": "Zhuozhou",
    "state_id": 2280,
    "state_code": "HE",
    "country_id": 45,
    "country_code": "CN",
    "latitude": "39.48335020",
    "longitude": "115.96858000",
    "wikiDataId": null
  },
  {
    "id": 20482,
    "name": "Zunhua",
    "state_id": 2280,
    "state_code": "HE",
    "country_id": 45,
    "country_code": "CN",
    "latitude": "40.17917000",
    "longitude": "117.95861000",
    "wikiDataId": null
  },
  {
    "id": 157708,
    "name": "Zunhua",
    "state_id": 2280,
    "state_code": "HE",
    "country_id": 45,
    "country_code": "CN",
    "latitude": "40.18809980",
    "longitude": "117.95962970",
    "wikiDataId": null
  }
]