[
  {
    "id": 76411,
    "name": "Ampang",
    "state_id": 1944,
    "state_code": "10",
    "country_id": 132,
    "country_code": "MY",
    "latitude": "3.15000000",
    "longitude": "101.76667000",
    "wikiDataId": null
  },
  {
    "id": 161559,
    "name": "Ampang Jaya",
    "state_id": 1944,
    "state_code": "10",
    "country_id": 132,
    "country_code": "MY",
    "latitude": "3.15000000",
    "longitude": "101.76667000",
    "wikiDataId": null
  },
  {
    "id": 161560,
    "name": "Assam Jawa",
    "state_id": 1944,
    "state_code": "10",
    "country_id": 132,
    "country_code": "MY",
    "latitude": "3.05000000",
    "longitude": "101.65000000",
    "wikiDataId": null
  },
  {
    "id": 76413,
    "name": "Bagan Pulau Ketam",
    "state_id": 1944,
    "state_code": "10",
    "country_id": 132,
    "country_code": "MY",
    "latitude": "3.01667000",
    "longitude": "101.26667000",
    "wikiDataId": null
  },
  {
    "id": 161561,
    "name": "Bandar Baru Selayang",
    "state_id": 1944,
    "state_code": "10",
    "country_id": 132,
    "country_code": "MY",
    "latitude": "3.26900000",
    "longitude": "101.65000000",
    "wikiDataId": null
  },
  {
    "id": 161562,
    "name": "Bandar Kundang",
    "state_id": 1944,
    "state_code": "10",
    "country_id": 132,
    "country_code": "MY",
    "latitude": "3.25500000",
    "longitude": "101.54700000",
    "wikiDataId": null
  },
  {
    "id": 161563,
    "name": "Bangi",
    "state_id": 1944,
    "state_code": "10",
    "country_id": 132,
    "country_code": "MY",
    "latitude": "2.98000000",
    "longitude": "101.78400000",
    "wikiDataId": null
  },
  {
    "id": 76418,
    "name": "Banting",
    "state_id": 1944,
    "state_code": "10",
    "country_id": 132,
    "country_code": "MY",
    "latitude": "2.81360000",
    "longitude": "101.50185000",
    "wikiDataId": null
  },
  {
    "id": 76419,
    "name": "Batang Berjuntai",
    "state_id": 1944,
    "state_code": "10",
    "country_id": 132,
    "country_code": "MY",
    "latitude": "3.38333000",
    "longitude": "101.41667000",
    "wikiDataId": null
  },
  {
    "id": 161564,
    "name": "Batang Kali",
    "state_id": 1944,
    "state_code": "10",
    "country_id": 132,
    "country_code": "MY",
    "latitude": "3.45870100",
    "longitude": "101.65953100",
    "wikiDataId": null
  },
  {
    "id": 76420,
    "name": "Batu Arang",
    "state_id": 1944,
    "state_code": "10",
    "country_id": 132,
    "country_code": "MY",
    "latitude": "3.31667000",
    "longitude": "101.46667000",
    "wikiDataId": null
  },
  {
    "id": 161565,
    "name": "Batu Caves",
    "state_id": 1944,
    "state_code": "10",
    "country_id": 132,
    "country_code": "MY",
    "latitude": "3.23788400",
    "longitude": "101.68403800",
    "wikiDataId": null
  },
  {
    "id": 161566,
    "name": "Beranang",
    "state_id": 1944,
    "state_code": "10",
    "country_id": 132,
    "country_code": "MY",
    "latitude": "2.98400000",
    "longitude": "101.81900000",
    "wikiDataId": null
  },
  {
    "id": 161567,
    "name": "Bestari Jaya",
    "state_id": 1944,
    "state_code": "10",
    "country_id": 132,
    "country_code": "MY",
    "latitude": "3.37795300",
    "longitude": "101.40623700",
    "wikiDataId": null
  },
  {
    "id": 161568,
    "name": "Broga",
    "state_id": 1944,
    "state_code": "10",
    "country_id": 132,
    "country_code": "MY",
    "latitude": "2.84000000",
    "longitude": "101.93000000",
    "wikiDataId": null
  },
  {
    "id": 161569,
    "name": "Bukit Rotan",
    "state_id": 1944,
    "state_code": "10",
    "country_id": 132,
    "country_code": "MY",
    "latitude": "3.45000000",
    "longitude": "101.25000000",
    "wikiDataId": null
  },
  {
    "id": 161570,
    "name": "Cyberjaya",
    "state_id": 1944,
    "state_code": "10",
    "country_id": 132,
    "country_code": "MY",
    "latitude": "2.92000000",
    "longitude": "101.65000000",
    "wikiDataId": null
  },
  {
    "id": 161571,
    "name": "Gombak",
    "state_id": 1944,
    "state_code": "10",
    "country_id": 132,
    "country_code": "MY",
    "latitude": "3.27425000",
    "longitude": "101.57072200",
    "wikiDataId": null
  },
  {
    "id": 161572,
    "name": "Jenjarom",
    "state_id": 1944,
    "state_code": "10",
    "country_id": 132,
    "country_code": "MY",
    "latitude": "2.83000000",
    "longitude": "101.23000000",
    "wikiDataId": null
  },
  {
    "id": 76451,
    "name": "Jenjarum",
    "state_id": 1944,
    "state_code": "10",
    "country_id": 132,
    "country_code": "MY",
    "latitude": "2.87240000",
    "longitude": "101.49484000",
    "wikiDataId": null
  },
  {
    "id": 161573,
    "name": "Kajang",
    "state_id": 1944,
    "state_code": "10",
    "country_id": 132,
    "country_code": "MY",
    "latitude": "2.98330000",
    "longitude": "101.78780000",
    "wikiDataId": null
  },
  {
    "id": 76458,
    "name": "Kampong Baharu Balakong",
    "state_id": 1944,
    "state_code": "10",
    "country_id": 132,
    "country_code": "MY",
    "latitude": "3.03333000",
    "longitude": "101.75000000",
    "wikiDataId": null
  },
  {
    "id": 76466,
    "name": "Kampung Baru Subang",
    "state_id": 1944,
    "state_code": "10",
    "country_id": 132,
    "country_code": "MY",
    "latitude": "3.15000000",
    "longitude": "101.53333000",
    "wikiDataId": null
  },
  {
    "id": 161574,
    "name": "Kampung Kuantan",
    "state_id": 1944,
    "state_code": "10",
    "country_id": 132,
    "country_code": "MY",
    "latitude": "3.34500000",
    "longitude": "101.25000000",
    "wikiDataId": null
  },
  {
    "id": 76476,
    "name": "Kampung Tanjung Karang",
    "state_id": 1944,
    "state_code": "10",
    "country_id": 132,
    "country_code": "MY",
    "latitude": "3.42420000",
    "longitude": "101.18490000",
    "wikiDataId": null
  },
  {
    "id": 161575,
    "name": "Kapar",
    "state_id": 1944,
    "state_code": "10",
    "country_id": 132,
    "country_code": "MY",
    "latitude": "3.10000000",
    "longitude": "101.42000000",
    "wikiDataId": null
  },
  {
    "id": 76485,
    "name": "Klang",
    "state_id": 1944,
    "state_code": "10",
    "country_id": 132,
    "country_code": "MY",
    "latitude": "3.03667000",
    "longitude": "101.44333000",
    "wikiDataId": null
  },
  {
    "id": 161576,
    "name": "Kuala Kubu Bharu",
    "state_id": 1944,
    "state_code": "10",
    "country_id": 132,
    "country_code": "MY",
    "latitude": "3.56093200",
    "longitude": "101.65854600",
    "wikiDataId": null
  },
  {
    "id": 76500,
    "name": "Kuala Selangor",
    "state_id": 1944,
    "state_code": "10",
    "country_id": 132,
    "country_code": "MY",
    "latitude": "3.35000000",
    "longitude": "101.25000000",
    "wikiDataId": null
  },
  {
    "id": 161577,
    "name": "Kuala Sungai Buloh",
    "state_id": 1944,
    "state_code": "10",
    "country_id": 132,
    "country_code": "MY",
    "latitude": "3.22000000",
    "longitude": "101.57000000",
    "wikiDataId": null
  },
  {
    "id": 76504,
    "name": "Kuang",
    "state_id": 1944,
    "state_code": "10",
    "country_id": 132,
    "country_code": "MY",
    "latitude": "3.25940000",
    "longitude": "101.55410000",
    "wikiDataId": null
  },
  {
    "id": 76512,
    "name": "Ladang Seri Kundang",
    "state_id": 1944,
    "state_code": "10",
    "country_id": 132,
    "country_code": "MY",
    "latitude": "3.28560000",
    "longitude": "101.51900000",
    "wikiDataId": null
  },
  {
    "id": 161578,
    "name": "Lagong",
    "state_id": 1944,
    "state_code": "10",
    "country_id": 132,
    "country_code": "MY",
    "latitude": "3.15000000",
    "longitude": "101.40000000",
    "wikiDataId": null
  },
  {
    "id": 161579,
    "name": "Meru",
    "state_id": 1944,
    "state_code": "10",
    "country_id": 132,
    "country_code": "MY",
    "latitude": "3.08000000",
    "longitude": "101.45000000",
    "wikiDataId": null
  },
  {
    "id": 161580,
    "name": "Mutiara Damansara",
    "state_id": 1944,
    "state_code": "10",
    "country_id": 132,
    "country_code": "MY",
    "latitude": "3.18000000",
    "longitude": "101.62000000",
    "wikiDataId": null
  },
  {
    "id": 161581,
    "name": "Padang Jawa",
    "state_id": 1944,
    "state_code": "10",
    "country_id": 132,
    "country_code": "MY",
    "latitude": "3.03000000",
    "longitude": "101.58000000",
    "wikiDataId": null
  },
  {
    "id": 161582,
    "name": "Pandamaran",
    "state_id": 1944,
    "state_code": "10",
    "country_id": 132,
    "country_code": "MY",
    "latitude": "3.01000000",
    "longitude": "101.42000000",
    "wikiDataId": null
  },
  {
    "id": 161583,
    "name": "Paya Jaras",
    "state_id": 1944,
    "state_code": "10",
    "country_id": 132,
    "country_code": "MY",
    "latitude": "3.17000000",
    "longitude": "101.61000000",
    "wikiDataId": null
  },
  {
    "id": 76539,
    "name": "Pelabuhan Klang",
    "state_id": 1944,
    "state_code": "10",
    "country_id": 132,
    "country_code": "MY",
    "latitude": "2.99959000",
    "longitude": "101.39287000",
    "wikiDataId": null
  },
  {
    "id": 76543,
    "name": "Petaling Jaya",
    "state_id": 1944,
    "state_code": "10",
    "country_id": 132,
    "country_code": "MY",
    "latitude": "3.10726000",
    "longitude": "101.60671000",
    "wikiDataId": null
  },
  {
    "id": 161584,
    "name": "Port Klang",
    "state_id": 1944,
    "state_code": "10",
    "country_id": 132,
    "country_code": "MY",
    "latitude": "3.00507000",
    "longitude": "101.40887000",
    "wikiDataId": null
  },
  {
    "id": 153725,
    "name": "Puchong",
    "state_id": 1944,
    "state_code": "10",
    "country_id": 132,
    "country_code": "MY",
    "latitude": "3.03270000",
    "longitude": "101.61880000",
    "wikiDataId": null
  },
  {
    "id": 76548,
    "name": "Putra Heights",
    "state_id": 1944,
    "state_code": "10",
    "country_id": 132,
    "country_code": "MY",
    "latitude": "2.99361000",
    "longitude": "101.57255000",
    "wikiDataId": null
  },
  {
    "id": 76552,
    "name": "Rawang",
    "state_id": 1944,
    "state_code": "10",
    "country_id": 132,
    "country_code": "MY",
    "latitude": "3.32130000",
    "longitude": "101.57670000",
    "wikiDataId": null
  },
  {
    "id": 161585,
    "name": "Sabak",
    "state_id": 1944,
    "state_code": "10",
    "country_id": 132,
    "country_code": "MY",
    "latitude": "3.77000000",
    "longitude": "100.99000000",
    "wikiDataId": null
  },
  {
    "id": 161586,
    "name": "Salak Tinggi",
    "state_id": 1944,
    "state_code": "10",
    "country_id": 132,
    "country_code": "MY",
    "latitude": "2.77000000",
    "longitude": "101.70000000",
    "wikiDataId": null
  },
  {
    "id": 161587,
    "name": "Sekinchan",
    "state_id": 1944,
    "state_code": "10",
    "country_id": 132,
    "country_code": "MY",
    "latitude": "3.50400000",
    "longitude": "101.10300000",
    "wikiDataId": null
  },
  {
    "id": 161588,
    "name": "Selayang",
    "state_id": 1944,
    "state_code": "10",
    "country_id": 132,
    "country_code": "MY",
    "latitude": "3.25000000",
    "longitude": "101.65000000",
    "wikiDataId": null
  },
  {
    "id": 76557,
    "name": "Semenyih",
    "state_id": 1944,
    "state_code": "10",
    "country_id": 132,
    "country_code": "MY",
    "latitude": "2.95160000",
    "longitude": "101.84300000",
    "wikiDataId": null
  },
  {
    "id": 161589,
    "name": "Sepang",
    "state_id": 1944,
    "state_code": "10",
    "country_id": 132,
    "country_code": "MY",
    "latitude": "2.70000000",
    "longitude": "101.70000000",
    "wikiDataId": null
  },
  {
    "id": 76560,
    "name": "Serendah",
    "state_id": 1944,
    "state_code": "10",
    "country_id": 132,
    "country_code": "MY",
    "latitude": "3.36460000",
    "longitude": "101.60410000",
    "wikiDataId": null
  },
  {
    "id": 161590,
    "name": "Seri Kembangan",
    "state_id": 1944,
    "state_code": "10",
    "country_id": 132,
    "country_code": "MY",
    "latitude": "3.03700000",
    "longitude": "101.69500000",
    "wikiDataId": null
  },
  {
    "id": 76561,
    "name": "Shah Alam",
    "state_id": 1944,
    "state_code": "10",
    "country_id": 132,
    "country_code": "MY",
    "latitude": "3.08507000",
    "longitude": "101.53281000",
    "wikiDataId": null
  },
  {
    "id": 76566,
    "name": "Subang Jaya",
    "state_id": 1944,
    "state_code": "10",
    "country_id": 132,
    "country_code": "MY",
    "latitude": "3.04384000",
    "longitude": "101.58062000",
    "wikiDataId": null
  },
  {
    "id": 161591,
    "name": "Sungai Air Tawar",
    "state_id": 1944,
    "state_code": "10",
    "country_id": 132,
    "country_code": "MY",
    "latitude": "3.68000000",
    "longitude": "101.14000000",
    "wikiDataId": null
  },
  {
    "id": 76567,
    "name": "Sungai Besar",
    "state_id": 1944,
    "state_code": "10",
    "country_id": 132,
    "country_code": "MY",
    "latitude": "3.67460000",
    "longitude": "100.98670000",
    "wikiDataId": null
  },
  {
    "id": 161592,
    "name": "Sungai Buaya",
    "state_id": 1944,
    "state_code": "10",
    "country_id": 132,
    "country_code": "MY",
    "latitude": "3.36000000",
    "longitude": "101.62000000",
    "wikiDataId": null
  },
  {
    "id": 161593,
    "name": "Sungai Burong",
    "state_id": 1944,
    "state_code": "10",
    "country_id": 132,
    "country_code": "MY",
    "latitude": "3.45000000",
    "longitude": "101.23000000",
    "wikiDataId": null
  },
  {
    "id": 161594,
    "name": "Sungai Choh",
    "state_id": 1944,
    "state_code": "10",
    "country_id": 132,
    "country_code": "MY",
    "latitude": "3.25000000",
    "longitude": "101.65000000",
    "wikiDataId": null
  },
  {
    "id": 161595,
    "name": "Sungai Pelek",
    "state_id": 1944,
    "state_code": "10",
    "country_id": 132,
    "country_code": "MY",
    "latitude": "2.65000000",
    "longitude": "101.70000000",
    "wikiDataId": null
  },
  {
    "id": 76568,
    "name": "Sungai Pelek New Village",
    "state_id": 1944,
    "state_code": "10",
    "country_id": 132,
    "country_code": "MY",
    "latitude": "2.65000000",
    "longitude": "101.70000000",
    "wikiDataId": null
  },
  {
    "id": 161596,
    "name": "Sungai Pelong",
    "state_id": 1944,
    "state_code": "10",
    "country_id": 132,
    "country_code": "MY",
    "latitude": "3.45000000",
    "longitude": "101.20000000",
    "wikiDataId": null
  },
  {
    "id": 161597,
    "name": "Sungai Tengi",
    "state_id": 1944,
    "state_code": "10",
    "country_id": 132,
    "country_code": "MY",
    "latitude": "3.28000000",
    "longitude": "101.47000000",
    "wikiDataId": null
  },
  {
    "id": 161598,
    "name": "Taman Melawati",
    "state_id": 1944,
    "state_code": "10",
    "country_id": 132,
    "country_code": "MY",
    "latitude": "3.27000000",
    "longitude": "101.74000000",
    "wikiDataId": null
  },
  {
    "id": 161599,
    "name": "Taman Tasik Semenyih",
    "state_id": 1944,
    "state_code": "10",
    "country_id": 132,
    "country_code": "MY",
    "latitude": "2.95000000",
    "longitude": "101.84000000",
    "wikiDataId": null
  },
  {
    "id": 76577,
    "name": "Tanjung Sepat",
    "state_id": 1944,
    "state_code": "10",
    "country_id": 132,
    "country_code": "MY",
    "latitude": "2.65790000",
    "longitude": "101.56290000",
    "wikiDataId": null
  },
  {
    "id": 161600,
    "name": "Teluk Datok",
    "state_id": 1944,
    "state_code": "10",
    "country_id": 132,
    "country_code": "MY",
    "latitude": "3.00000000",
    "longitude": "101.39000000",
    "wikiDataId": null
  },
  {
    "id": 161601,
    "name": "Ulu Yam",
    "state_id": 1944,
    "state_code": "10",
    "country_id": 132,
    "country_code": "MY",
    "latitude": "3.40000000",
    "longitude": "101.55000000",
    "wikiDataId": null
  }
]