[
  {
    "id": 161602,
    "name": "Abak",
    "state_id": 304,
    "state_code": "AK",
    "country_id": 161,
    "country_code": "NG",
    "latitude": "4.99330000",
    "longitude": "7.78950000",
    "wikiDataId": null
  },
  {
    "id": 161603,
    "name": "Eastern Obolo",
    "state_id": 304,
    "state_code": "AK",
    "country_id": 161,
    "country_code": "NG",
    "latitude": "4.54980000",
    "longitude": "7.78390000",
    "wikiDataId": null
  },
  {
    "id": 76858,
    "name": "Eket",
    "state_id": 304,
    "state_code": "AK",
    "country_id": 161,
    "country_code": "NG",
    "latitude": "4.64231000",
    "longitude": "7.92438000",
    "wikiDataId": null
  },
  {
    "id": 161604,
    "name": "Esit Eket",
    "state_id": 304,
    "state_code": "AK",
    "country_id": 161,
    "country_code": "NG",
    "latitude": "4.63550000",
    "longitude": "7.89930000",
    "wikiDataId": null
  },
  {
    "id": 161605,
    "name": "Essien Udim",
    "state_id": 304,
    "state_code": "AK",
    "country_id": 161,
    "country_code": "NG",
    "latitude": "5.01670000",
    "longitude": "7.85000000",
    "wikiDataId": null
  },
  {
    "id": 76865,
    "name": "Esuk Oron",
    "state_id": 304,
    "state_code": "AK",
    "country_id": 161,
    "country_code": "NG",
    "latitude": "4.80293000",
    "longitude": "8.25341000",
    "wikiDataId": null
  },
  {
    "id": 161606,
    "name": "Etim Ekpo",
    "state_id": 304,
    "state_code": "AK",
    "country_id": 161,
    "country_code": "NG",
    "latitude": "4.96670000",
    "longitude": "7.70000000",
    "wikiDataId": null
  },
  {
    "id": 161607,
    "name": "Etinan",
    "state_id": 304,
    "state_code": "AK",
    "country_id": 161,
    "country_code": "NG",
    "latitude": "4.90000000",
    "longitude": "7.95000000",
    "wikiDataId": null
  },
  {
    "id": 161608,
    "name": "Ibeno",
    "state_id": 304,
    "state_code": "AK",
    "country_id": 161,
    "country_code": "NG",
    "latitude": "4.53330000",
    "longitude": "8.06670000",
    "wikiDataId": null
  },
  {
    "id": 161609,
    "name": "Ibesikpo Asutan",
    "state_id": 304,
    "state_code": "AK",
    "country_id": 161,
    "country_code": "NG",
    "latitude": "4.93330000",
    "longitude": "7.93330000",
    "wikiDataId": null
  },
  {
    "id": 161610,
    "name": "Ibiono-Ibom",
    "state_id": 304,
    "state_code": "AK",
    "country_id": 161,
    "country_code": "NG",
    "latitude": "5.11670000",
    "longitude": "7.91670000",
    "wikiDataId": null
  },
  {
    "id": 161611,
    "name": "Ika",
    "state_id": 304,
    "state_code": "AK",
    "country_id": 161,
    "country_code": "NG",
    "latitude": "4.91670000",
    "longitude": "7.65000000",
    "wikiDataId": null
  },
  {
    "id": 161612,
    "name": "Ikono",
    "state_id": 304,
    "state_code": "AK",
    "country_id": 161,
    "country_code": "NG",
    "latitude": "5.13330000",
    "longitude": "7.68330000",
    "wikiDataId": null
  },
  {
    "id": 161613,
    "name": "Ikot Abasi",
    "state_id": 304,
    "state_code": "AK",
    "country_id": 161,
    "country_code": "NG",
    "latitude": "4.56670000",
    "longitude": "7.56670000",
    "wikiDataId": null
  },
  {
    "id": 76937,
    "name": "Ikot Ekpene",
    "state_id": 304,
    "state_code": "AK",
    "country_id": 161,
    "country_code": "NG",
    "latitude": "5.18194000",
    "longitude": "7.71481000",
    "wikiDataId": null
  },
  {
    "id": 161614,
    "name": "Ini",
    "state_id": 304,
    "state_code": "AK",
    "country_id": 161,
    "country_code": "NG",
    "latitude": "5.20000000",
    "longitude": "7.75000000",
    "wikiDataId": null
  },
  {
    "id": 76955,
    "name": "Itu",
    "state_id": 304,
    "state_code": "AK",
    "country_id": 161,
    "country_code": "NG",
    "latitude": "5.20131000",
    "longitude": "7.98373000",
    "wikiDataId": null
  },
  {
    "id": 161615,
    "name": "Mbo",
    "state_id": 304,
    "state_code": "AK",
    "country_id": 161,
    "country_code": "NG",
    "latitude": "4.46670000",
    "longitude": "8.08330000",
    "wikiDataId": null
  },
  {
    "id": 161616,
    "name": "Mkpat-Enin",
    "state_id": 304,
    "state_code": "AK",
    "country_id": 161,
    "country_code": "NG",
    "latitude": "5.03330000",
    "longitude": "7.75000000",
    "wikiDataId": null
  },
  {
    "id": 161617,
    "name": "Nsit-Atai",
    "state_id": 304,
    "state_code": "AK",
    "country_id": 161,
    "country_code": "NG",
    "latitude": "5.06670000",
    "longitude": "7.73330000",
    "wikiDataId": null
  },
  {
    "id": 161618,
    "name": "Nsit-Ibom",
    "state_id": 304,
    "state_code": "AK",
    "country_id": 161,
    "country_code": "NG",
    "latitude": "4.98330000",
    "longitude": "7.80000000",
    "wikiDataId": null
  },
  {
    "id": 161619,
    "name": "Nsit-Ubium",
    "state_id": 304,
    "state_code": "AK",
    "country_id": 161,
    "country_code": "NG",
    "latitude": "4.93330000",
    "longitude": "7.98330000",
    "wikiDataId": null
  },
  {
    "id": 161620,
    "name": "Obot Akara",
    "state_id": 304,
    "state_code": "AK",
    "country_id": 161,
    "country_code": "NG",
    "latitude": "5.26670000",
    "longitude": "7.71670000",
    "wikiDataId": null
  },
  {
    "id": 161621,
    "name": "Okobo",
    "state_id": 304,
    "state_code": "AK",
    "country_id": 161,
    "country_code": "NG",
    "latitude": "4.55000000",
    "longitude": "8.11670000",
    "wikiDataId": null
  },
  {
    "id": 161622,
    "name": "Onna",
    "state_id": 304,
    "state_code": "AK",
    "country_id": 161,
    "country_code": "NG",
    "latitude": "4.75000000",
    "longitude": "8.00000000",
    "wikiDataId": null
  },
  {
    "id": 161623,
    "name": "Oron",
    "state_id": 304,
    "state_code": "AK",
    "country_id": 161,
    "country_code": "NG",
    "latitude": "4.80170000",
    "longitude": "8.23580000",
    "wikiDataId": null
  },
  {
    "id": 161624,
    "name": "Oruk Anam",
    "state_id": 304,
    "state_code": "AK",
    "country_id": 161,
    "country_code": "NG",
    "latitude": "4.96670000",
    "longitude": "7.55000000",
    "wikiDataId": null
  },
  {
    "id": 161625,
    "name": "Udung-Uko",
    "state_id": 304,
    "state_code": "AK",
    "country_id": 161,
    "country_code": "NG",
    "latitude": "4.43330000",
    "longitude": "7.95000000",
    "wikiDataId": null
  },
  {
    "id": 161626,
    "name": "Ukanafun",
    "state_id": 304,
    "state_code": "AK",
    "country_id": 161,
    "country_code": "NG",
    "latitude": "4.96670000",
    "longitude": "7.81670000",
    "wikiDataId": null
  },
  {
    "id": 161627,
    "name": "Uruan",
    "state_id": 304,
    "state_code": "AK",
    "country_id": 161,
    "country_code": "NG",
    "latitude": "5.03330000",
    "longitude": "8.08330000",
    "wikiDataId": null
  },
  {
    "id": 161628,
    "name": "Urue-Offong/Oruko",
    "state_id": 304,
    "state_code": "AK",
    "country_id": 161,
    "country_code": "NG",
    "latitude": "4.71670000",
    "longitude": "8.18330000",
    "wikiDataId": null
  },
  {
    "id": 77129,
    "name": "Uyo",
    "state_id": 304,
    "state_code": "AK",
    "country_id": 161,
    "country_code": "NG",
    "latitude": "5.05127000",
    "longitude": "7.93350000",
    "wikiDataId": null
  }
]