[
  {
    "id": 159493,
    "name": "Anji",
    "state_id": 2247,
    "state_code": "ZJ",
    "country_id": 45,
    "country_code": "CN",
    "latitude": "30.63831070",
    "longitude": "119.67550060",
    "wikiDataId": null
  },
  {
    "id": 159462,
    "name": "Beilun",
    "state_id": 2247,
    "state_code": "ZJ",
    "country_id": 45,
    "country_code": "CN",
    "latitude": "29.90238930",
    "longitude": "121.84059720",
    "wikiDataId": null
  },
  {
    "id": 159450,
    "name": "Binjiang",
    "state_id": 2247,
    "state_code": "ZJ",
    "country_id": 45,
    "country_code": "CN",
    "latitude": "30.21098150",
    "longitude": "120.20722960",
    "wikiDataId": null
  },
  {
    "id": 159476,
    "name": "Cangnan",
    "state_id": 2247,
    "state_code": "ZJ",
    "country_id": 45,
    "country_code": "CN",
    "latitude": "27.51840460",
    "longitude": "120.42329150",
    "wikiDataId": null
  },
  {
    "id": 159511,
    "name": "Changshan",
    "state_id": 2247,
    "state_code": "ZJ",
    "country_id": 45,
    "country_code": "CN",
    "latitude": "28.90602330",
    "longitude": "118.50635850",
    "wikiDataId": null
  },
  {
    "id": 159492,
    "name": "Changxing",
    "state_id": 2247,
    "state_code": "ZJ",
    "country_id": 45,
    "country_code": "CN",
    "latitude": "31.02785660",
    "longitude": "119.90664730",
    "wikiDataId": null
  },
  {
    "id": 159458,
    "name": "Chun'an",
    "state_id": 2247,
    "state_code": "ZJ",
    "country_id": 45,
    "country_code": "CN",
    "latitude": "29.61184670",
    "longitude": "119.03677410",
    "wikiDataId": null
  },
  {
    "id": 159469,
    "name": "Cixi",
    "state_id": 2247,
    "state_code": "ZJ",
    "country_id": 45,
    "country_code": "CN",
    "latitude": "30.17304370",
    "longitude": "121.26232590",
    "wikiDataId": null
  },
  {
    "id": 159517,
    "name": "Daishan",
    "state_id": 2247,
    "state_code": "ZJ",
    "country_id": 45,
    "country_code": "CN",
    "latitude": "30.26520690",
    "longitude": "122.22300720",
    "wikiDataId": null
  },
  {
    "id": 19453,
    "name": "Deqing",
    "state_id": 2247,
    "state_code": "ZJ",
    "country_id": 45,
    "country_code": "CN",
    "latitude": "30.54485000",
    "longitude": "119.95990000",
    "wikiDataId": null
  },
  {
    "id": 159491,
    "name": "Deqing",
    "state_id": 2247,
    "state_code": "ZJ",
    "country_id": 45,
    "country_code": "CN",
    "latitude": "30.56256910",
    "longitude": "120.05005940",
    "wikiDataId": null
  },
  {
    "id": 159515,
    "name": "Dinghai",
    "state_id": 2247,
    "state_code": "ZJ",
    "country_id": 45,
    "country_code": "CN",
    "latitude": "30.02159920",
    "longitude": "122.10259560",
    "wikiDataId": null
  },
  {
    "id": 159473,
    "name": "Dongtou",
    "state_id": 2247,
    "state_code": "ZJ",
    "country_id": 45,
    "country_code": "CN",
    "latitude": "27.83894400",
    "longitude": "121.15267190",
    "wikiDataId": null
  },
  {
    "id": 19481,
    "name": "Dongyang",
    "state_id": 2247,
    "state_code": "ZJ",
    "country_id": 45,
    "country_code": "CN",
    "latitude": "29.26778000",
    "longitude": "120.22528000",
    "wikiDataId": null
  },
  {
    "id": 159507,
    "name": "Dongyang",
    "state_id": 2247,
    "state_code": "ZJ",
    "country_id": 45,
    "country_code": "CN",
    "latitude": "29.29245280",
    "longitude": "120.23726690",
    "wikiDataId": null
  },
  {
    "id": 19505,
    "name": "Fenghua",
    "state_id": 2247,
    "state_code": "ZJ",
    "country_id": 45,
    "country_code": "CN",
    "latitude": "29.65628000",
    "longitude": "121.40640000",
    "wikiDataId": null
  },
  {
    "id": 159465,
    "name": "Fenghua",
    "state_id": 2247,
    "state_code": "ZJ",
    "country_id": 45,
    "country_code": "CN",
    "latitude": "29.65758690",
    "longitude": "121.40171360",
    "wikiDataId": null
  },
  {
    "id": 19526,
    "name": "Fuyang",
    "state_id": 2247,
    "state_code": "ZJ",
    "country_id": 45,
    "country_code": "CN",
    "latitude": "30.05333000",
    "longitude": "119.95194000",
    "wikiDataId": null
  },
  {
    "id": 159455,
    "name": "Fuyang",
    "state_id": 2247,
    "state_code": "ZJ",
    "country_id": 45,
    "country_code": "CN",
    "latitude": "30.05048470",
    "longitude": "119.95590510",
    "wikiDataId": null
  },
  {
    "id": 159448,
    "name": "Gongshu",
    "state_id": 2247,
    "state_code": "ZJ",
    "country_id": 45,
    "country_code": "CN",
    "latitude": "30.32134810",
    "longitude": "120.13670600",
    "wikiDataId": null
  },
  {
    "id": 19576,
    "name": "Guli",
    "state_id": 2247,
    "state_code": "ZJ",
    "country_id": 45,
    "country_code": "CN",
    "latitude": "28.88162000",
    "longitude": "120.03308000",
    "wikiDataId": null
  },
  {
    "id": 19591,
    "name": "Haining",
    "state_id": 2247,
    "state_code": "ZJ",
    "country_id": 45,
    "country_code": "CN",
    "latitude": "30.53629000",
    "longitude": "120.68638000",
    "wikiDataId": null
  },
  {
    "id": 159486,
    "name": "Haining",
    "state_id": 2247,
    "state_code": "ZJ",
    "country_id": 45,
    "country_code": "CN",
    "latitude": "30.51422560",
    "longitude": "120.67597330",
    "wikiDataId": null
  },
  {
    "id": 159460,
    "name": "Haishu",
    "state_id": 2247,
    "state_code": "ZJ",
    "country_id": 45,
    "country_code": "CN",
    "latitude": "29.87654120",
    "longitude": "121.54648830",
    "wikiDataId": null
  },
  {
    "id": 159485,
    "name": "Haiyan",
    "state_id": 2247,
    "state_code": "ZJ",
    "country_id": 45,
    "country_code": "CN",
    "latitude": "30.45321130",
    "longitude": "120.99725250",
    "wikiDataId": null
  },
  {
    "id": 19598,
    "name": "Hangzhou",
    "state_id": 2247,
    "state_code": "ZJ",
    "country_id": 45,
    "country_code": "CN",
    "latitude": "30.24896340",
    "longitude": "120.20523420",
    "wikiDataId": null
  },
  {
    "id": 19662,
    "name": "Huangyan",
    "state_id": 2247,
    "state_code": "ZJ",
    "country_id": 45,
    "country_code": "CN",
    "latitude": "28.65010000",
    "longitude": "121.26591000",
    "wikiDataId": null
  },
  {
    "id": 159520,
    "name": "Huangyan",
    "state_id": 2247,
    "state_code": "ZJ",
    "country_id": 45,
    "country_code": "CN",
    "latitude": "28.65319000",
    "longitude": "121.25763250",
    "wikiDataId": null
  },
  {
    "id": 19689,
    "name": "Huzhou",
    "state_id": 2247,
    "state_code": "ZJ",
    "country_id": 45,
    "country_code": "CN",
    "latitude": "30.89429950",
    "longitude": "120.08511140",
    "wikiDataId": null
  },
  {
    "id": 159459,
    "name": "Jiande",
    "state_id": 2247,
    "state_code": "ZJ",
    "country_id": 45,
    "country_code": "CN",
    "latitude": "29.47558820",
    "longitude": "119.27498760",
    "wikiDataId": null
  },
  {
    "id": 159461,
    "name": "Jiangbei",
    "state_id": 2247,
    "state_code": "ZJ",
    "country_id": 45,
    "country_code": "CN",
    "latitude": "29.89027600",
    "longitude": "121.55171420",
    "wikiDataId": null
  },
  {
    "id": 159514,
    "name": "Jiangshan",
    "state_id": 2247,
    "state_code": "ZJ",
    "country_id": 45,
    "country_code": "CN",
    "latitude": "28.74175960",
    "longitude": "118.62264660",
    "wikiDataId": null
  },
  {
    "id": 19710,
    "name": "Jiaojiang",
    "state_id": 2247,
    "state_code": "ZJ",
    "country_id": 45,
    "country_code": "CN",
    "latitude": "28.69844000",
    "longitude": "121.47331000",
    "wikiDataId": null
  },
  {
    "id": 159519,
    "name": "Jiaojiang",
    "state_id": 2247,
    "state_code": "ZJ",
    "country_id": 45,
    "country_code": "CN",
    "latitude": "28.67580420",
    "longitude": "121.43857110",
    "wikiDataId": null
  },
  {
    "id": 19713,
    "name": "Jiashan",
    "state_id": 2247,
    "state_code": "ZJ",
    "country_id": 45,
    "country_code": "CN",
    "latitude": "30.84918000",
    "longitude": "120.92583000",
    "wikiDataId": null
  },
  {
    "id": 159484,
    "name": "Jiashan",
    "state_id": 2247,
    "state_code": "ZJ",
    "country_id": 45,
    "country_code": "CN",
    "latitude": "30.83274460",
    "longitude": "120.92180240",
    "wikiDataId": null
  },
  {
    "id": 19714,
    "name": "Jiaxing",
    "state_id": 2247,
    "state_code": "ZJ",
    "country_id": 45,
    "country_code": "CN",
    "latitude": "30.74744250",
    "longitude": "120.75109710",
    "wikiDataId": null
  },
  {
    "id": 19715,
    "name": "Jiaxing",
    "state_id": 2247,
    "state_code": "ZJ",
    "country_id": 45,
    "country_code": "CN",
    "latitude": "30.77070000",
    "longitude": "120.75238000",
    "wikiDataId": null
  },
  {
    "id": 159501,
    "name": "Jindong",
    "state_id": 2247,
    "state_code": "ZJ",
    "country_id": 45,
    "country_code": "CN",
    "latitude": "29.10285200",
    "longitude": "119.68807800",
    "wikiDataId": null
  },
  {
    "id": 159535,
    "name": "Jingning",
    "state_id": 2247,
    "state_code": "ZJ",
    "country_id": 45,
    "country_code": "CN",
    "latitude": "27.99711630",
    "longitude": "119.63382260",
    "wikiDataId": null
  },
  {
    "id": 19740,
    "name": "Jinhua",
    "state_id": 2247,
    "state_code": "ZJ",
    "country_id": 45,
    "country_code": "CN",
    "latitude": "29.10803440",
    "longitude": "119.64864870",
    "wikiDataId": null
  },
  {
    "id": 19750,
    "name": "Jinxiang",
    "state_id": 2247,
    "state_code": "ZJ",
    "country_id": 45,
    "country_code": "CN",
    "latitude": "27.43265000",
    "longitude": "120.60625000",
    "wikiDataId": null
  },
  {
    "id": 159530,
    "name": "Jinyun",
    "state_id": 2247,
    "state_code": "ZJ",
    "country_id": 45,
    "country_code": "CN",
    "latitude": "28.66155290",
    "longitude": "120.08695650",
    "wikiDataId": null
  },
  {
    "id": 159512,
    "name": "Kaihua",
    "state_id": 2247,
    "state_code": "ZJ",
    "country_id": 45,
    "country_code": "CN",
    "latitude": "29.13990830",
    "longitude": "118.41080290",
    "wikiDataId": null
  },
  {
    "id": 159509,
    "name": "Kecheng",
    "state_id": 2247,
    "state_code": "ZJ",
    "country_id": 45,
    "country_code": "CN",
    "latitude": "28.94062740",
    "longitude": "118.86882400",
    "wikiDataId": null
  },
  {
    "id": 159495,
    "name": "Keqiao",
    "state_id": 2247,
    "state_code": "ZJ",
    "country_id": 45,
    "country_code": "CN",
    "latitude": "30.08479590",
    "longitude": "120.49080650",
    "wikiDataId": null
  },
  {
    "id": 19785,
    "name": "Kunyang",
    "state_id": 2247,
    "state_code": "ZJ",
    "country_id": 45,
    "country_code": "CN",
    "latitude": "27.66583000",
    "longitude": "120.56583000",
    "wikiDataId": null
  },
  {
    "id": 19801,
    "name": "Lanxi",
    "state_id": 2247,
    "state_code": "ZJ",
    "country_id": 45,
    "country_code": "CN",
    "latitude": "29.21588000",
    "longitude": "119.47156000",
    "wikiDataId": null
  },
  {
    "id": 159505,
    "name": "Lanxi",
    "state_id": 2247,
    "state_code": "ZJ",
    "country_id": 45,
    "country_code": "CN",
    "latitude": "29.21177690",
    "longitude": "119.45534500",
    "wikiDataId": null
  },
  {
    "id": 159528,
    "name": "Liandu",
    "state_id": 2247,
    "state_code": "ZJ",
    "country_id": 45,
    "country_code": "CN",
    "latitude": "28.44959410",
    "longitude": "119.90796030",
    "wikiDataId": null
  },
  {
    "id": 19814,
    "name": "Lianghu",
    "state_id": 2247,
    "state_code": "ZJ",
    "country_id": 45,
    "country_code": "CN",
    "latitude": "29.99152000",
    "longitude": "120.89845000",
    "wikiDataId": null
  },
  {
    "id": 159456,
    "name": "Lin'an",
    "state_id": 2247,
    "state_code": "ZJ",
    "country_id": 45,
    "country_code": "CN",
    "latitude": "30.23713640",
    "longitude": "119.71926310",
    "wikiDataId": null
  },
  {
    "id": 19844,
    "name": "Linhai",
    "state_id": 2247,
    "state_code": "ZJ",
    "country_id": 45,
    "country_code": "CN",
    "latitude": "28.85535000",
    "longitude": "121.14470000",
    "wikiDataId": null
  },
  {
    "id": 159526,
    "name": "Linhai",
    "state_id": 2247,
    "state_code": "ZJ",
    "country_id": 45,
    "country_code": "CN",
    "latitude": "28.86168860",
    "longitude": "121.14022230",
    "wikiDataId": null
  },
  {
    "id": 19848,
    "name": "Linping",
    "state_id": 2247,
    "state_code": "ZJ",
    "country_id": 45,
    "country_code": "CN",
    "latitude": "30.42250000",
    "longitude": "120.29722000",
    "wikiDataId": null
  },
  {
    "id": 159453,
    "name": "Linping",
    "state_id": 2247,
    "state_code": "ZJ",
    "country_id": 45,
    "country_code": "CN",
    "latitude": "30.42170490",
    "longitude": "120.29465320",
    "wikiDataId": null
  },
  {
    "id": 19858,
    "name": "Lishui",
    "state_id": 2247,
    "state_code": "ZJ",
    "country_id": 45,
    "country_code": "CN",
    "latitude": "28.47040640",
    "longitude": "119.91842970",
    "wikiDataId": null
  },
  {
    "id": 159481,
    "name": "Longgang",
    "state_id": 2247,
    "state_code": "ZJ",
    "country_id": 45,
    "country_code": "CN",
    "latitude": "27.58152520",
    "longitude": "120.54913400",
    "wikiDataId": null
  },
  {
    "id": 159536,
    "name": "Longquan",
    "state_id": 2247,
    "state_code": "ZJ",
    "country_id": 45,
    "country_code": "CN",
    "latitude": "28.07609720",
    "longitude": "119.13700060",
    "wikiDataId": null
  },
  {
    "id": 159471,
    "name": "Longwan",
    "state_id": 2247,
    "state_code": "ZJ",
    "country_id": 45,
    "country_code": "CN",
    "latitude": "27.93639080",
    "longitude": "120.80817470",
    "wikiDataId": null
  },
  {
    "id": 159513,
    "name": "Longyou",
    "state_id": 2247,
    "state_code": "ZJ",
    "country_id": 45,
    "country_code": "CN",
    "latitude": "29.03096910",
    "longitude": "119.16736610",
    "wikiDataId": null
  },
  {
    "id": 159470,
    "name": "Lucheng",
    "state_id": 2247,
    "state_code": "ZJ",
    "country_id": 45,
    "country_code": "CN",
    "latitude": "28.01879870",
    "longitude": "120.65072020",
    "wikiDataId": null
  },
  {
    "id": 19891,
    "name": "Luqiao",
    "state_id": 2247,
    "state_code": "ZJ",
    "country_id": 45,
    "country_code": "CN",
    "latitude": "28.58023000",
    "longitude": "121.37491000",
    "wikiDataId": null
  },
  {
    "id": 159521,
    "name": "Luqiao",
    "state_id": 2247,
    "state_code": "ZJ",
    "country_id": 45,
    "country_code": "CN",
    "latitude": "28.58187180",
    "longitude": "121.33388070",
    "wikiDataId": null
  },
  {
    "id": 159482,
    "name": "Nanhu",
    "state_id": 2247,
    "state_code": "ZJ",
    "country_id": 45,
    "country_code": "CN",
    "latitude": "30.75028210",
    "longitude": "120.77862750",
    "wikiDataId": null
  },
  {
    "id": 159490,
    "name": "Nanxun",
    "state_id": 2247,
    "state_code": "ZJ",
    "country_id": 45,
    "country_code": "CN",
    "latitude": "30.77924240",
    "longitude": "120.29128300",
    "wikiDataId": null
  },
  {
    "id": 19959,
    "name": "Ningbo",
    "state_id": 2247,
    "state_code": "ZJ",
    "country_id": 45,
    "country_code": "CN",
    "latitude": "29.86221940",
    "longitude": "121.62038730",
    "wikiDataId": null
  },
  {
    "id": 19961,
    "name": "Ninghai",
    "state_id": 2247,
    "state_code": "ZJ",
    "country_id": 45,
    "country_code": "CN",
    "latitude": "29.28917000",
    "longitude": "121.42472000",
    "wikiDataId": null
  },
  {
    "id": 159467,
    "name": "Ninghai",
    "state_id": 2247,
    "state_code": "ZJ",
    "country_id": 45,
    "country_code": "CN",
    "latitude": "29.29077740",
    "longitude": "121.42522520",
    "wikiDataId": null
  },
  {
    "id": 159472,
    "name": "Ouhai",
    "state_id": 2247,
    "state_code": "ZJ",
    "country_id": 45,
    "country_code": "CN",
    "latitude": "27.96965860",
    "longitude": "120.61142390",
    "wikiDataId": null
  },
  {
    "id": 159504,
    "name": "Pan'an",
    "state_id": 2247,
    "state_code": "ZJ",
    "country_id": 45,
    "country_code": "CN",
    "latitude": "29.05730790",
    "longitude": "120.44558930",
    "wikiDataId": null
  },
  {
    "id": 159487,
    "name": "Pinghu",
    "state_id": 2247,
    "state_code": "ZJ",
    "country_id": 45,
    "country_code": "CN",
    "latitude": "30.67824020",
    "longitude": "121.01161960",
    "wikiDataId": null
  },
  {
    "id": 159475,
    "name": "Pingyang",
    "state_id": 2247,
    "state_code": "ZJ",
    "country_id": 45,
    "country_code": "CN",
    "latitude": "27.66528610",
    "longitude": "120.56237120",
    "wikiDataId": null
  },
  {
    "id": 159503,
    "name": "Pujiang",
    "state_id": 2247,
    "state_code": "ZJ",
    "country_id": 45,
    "country_code": "CN",
    "latitude": "29.45582110",
    "longitude": "119.88695380",
    "wikiDataId": null
  },
  {
    "id": 159516,
    "name": "Putuo",
    "state_id": 2247,
    "state_code": "ZJ",
    "country_id": 45,
    "country_code": "CN",
    "latitude": "29.97351950",
    "longitude": "122.31943300",
    "wikiDataId": null
  },
  {
    "id": 19999,
    "name": "Puyang",
    "state_id": 2247,
    "state_code": "ZJ",
    "country_id": 45,
    "country_code": "CN",
    "latitude": "29.45679000",
    "longitude": "119.88872000",
    "wikiDataId": null
  },
  {
    "id": 159454,
    "name": "Qiantang",
    "state_id": 2247,
    "state_code": "ZJ",
    "country_id": 45,
    "country_code": "CN",
    "latitude": "30.04696860",
    "longitude": "120.05161500",
    "wikiDataId": null
  },
  {
    "id": 159529,
    "name": "Qingtian",
    "state_id": 2247,
    "state_code": "ZJ",
    "country_id": 45,
    "country_code": "CN",
    "latitude": "28.20533100",
    "longitude": "120.13480600",
    "wikiDataId": null
  },
  {
    "id": 159534,
    "name": "Qingyuan",
    "state_id": 2247,
    "state_code": "ZJ",
    "country_id": 45,
    "country_code": "CN",
    "latitude": "27.62322780",
    "longitude": "119.05676270",
    "wikiDataId": null
  },
  {
    "id": 159510,
    "name": "Qujiang",
    "state_id": 2247,
    "state_code": "ZJ",
    "country_id": 45,
    "country_code": "CN",
    "latitude": "28.98390980",
    "longitude": "118.95401900",
    "wikiDataId": null
  },
  {
    "id": 20039,
    "name": "Quzhou",
    "state_id": 2247,
    "state_code": "ZJ",
    "country_id": 45,
    "country_code": "CN",
    "latitude": "28.97388700",
    "longitude": "118.85409240",
    "wikiDataId": null
  },
  {
    "id": 159479,
    "name": "Rui'an",
    "state_id": 2247,
    "state_code": "ZJ",
    "country_id": 45,
    "country_code": "CN",
    "latitude": "27.78090470",
    "longitude": "120.65126520",
    "wikiDataId": null
  },
  {
    "id": 159522,
    "name": "Sanmen",
    "state_id": 2247,
    "state_code": "ZJ",
    "country_id": 45,
    "country_code": "CN",
    "latitude": "29.10749460",
    "longitude": "121.39114930",
    "wikiDataId": null
  },
  {
    "id": 149194,
    "name": "Shangcang",
    "state_id": 2247,
    "state_code": "ZJ",
    "country_id": 45,
    "country_code": "CN",
    "latitude": "39.90518000",
    "longitude": "117.39553000",
    "wikiDataId": null
  },
  {
    "id": 159447,
    "name": "Shangcheng",
    "state_id": 2247,
    "state_code": "ZJ",
    "country_id": 45,
    "country_code": "CN",
    "latitude": "30.22867800",
    "longitude": "120.19308250",
    "wikiDataId": null
  },
  {
    "id": 20069,
    "name": "Shangyu",
    "state_id": 2247,
    "state_code": "ZJ",
    "country_id": 45,
    "country_code": "CN",
    "latitude": "30.01556000",
    "longitude": "120.87111000",
    "wikiDataId": null
  },
  {
    "id": 159496,
    "name": "Shangyu",
    "state_id": 2247,
    "state_code": "ZJ",
    "country_id": 45,
    "country_code": "CN",
    "latitude": "30.03570000",
    "longitude": "120.86406280",
    "wikiDataId": null
  },
  {
    "id": 20082,
    "name": "Shaoxing",
    "state_id": 2247,
    "state_code": "ZJ",
    "country_id": 45,
    "country_code": "CN",
    "latitude": "29.99924250",
    "longitude": "120.57685400",
    "wikiDataId": null
  },
  {
    "id": 159518,
    "name": "Shengsi",
    "state_id": 2247,
    "state_code": "ZJ",
    "country_id": 45,
    "country_code": "CN",
    "latitude": "30.72785160",
    "longitude": "122.44692870",
    "wikiDataId": null
  },
  {
    "id": 159499,
    "name": "Shengzhou",
    "state_id": 2247,
    "state_code": "ZJ",
    "country_id": 45,
    "country_code": "CN",
    "latitude": "29.56440070",
    "longitude": "120.82667040",
    "wikiDataId": null
  },
  {
    "id": 20088,
    "name": "Shenjiamen",
    "state_id": 2247,
    "state_code": "ZJ",
    "country_id": 45,
    "country_code": "CN",
    "latitude": "29.95763000",
    "longitude": "122.29802000",
    "wikiDataId": null
  },
  {
    "id": 159532,
    "name": "Songyang",
    "state_id": 2247,
    "state_code": "ZJ",
    "country_id": 45,
    "country_code": "CN",
    "latitude": "28.42005640",
    "longitude": "119.43883590",
    "wikiDataId": null
  },
  {
    "id": 159531,
    "name": "Suichang",
    "state_id": 2247,
    "state_code": "ZJ",
    "country_id": 45,
    "country_code": "CN",
    "latitude": "28.59501200",
    "longitude": "119.26864750",
    "wikiDataId": null
  },
  {
    "id": 159478,
    "name": "Taishun",
    "state_id": 2247,
    "state_code": "ZJ",
    "country_id": 45,
    "country_code": "CN",
    "latitude": "27.55949650",
    "longitude": "119.71263690",
    "wikiDataId": null
  },
  {
    "id": 20164,
    "name": "Taizhou",
    "state_id": 2247,
    "state_code": "ZJ",
    "country_id": 45,
    "country_code": "CN",
    "latitude": "28.65817230",
    "longitude": "121.41638760",
    "wikiDataId": null
  },
  {
    "id": 159523,
    "name": "Tiantai",
    "state_id": 2247,
    "state_code": "ZJ",
    "country_id": 45,
    "country_code": "CN",
    "latitude": "29.14673620",
    "longitude": "121.00246120",
    "wikiDataId": null
  },
  {
    "id": 159457,
    "name": "Tonglu",
    "state_id": 2247,
    "state_code": "ZJ",
    "country_id": 45,
    "country_code": "CN",
    "latitude": "29.79656270",
    "longitude": "119.68768580",
    "wikiDataId": null
  },
  {
    "id": 159488,
    "name": "Tongxiang",
    "state_id": 2247,
    "state_code": "ZJ",
    "country_id": 45,
    "country_code": "CN",
    "latitude": "30.63169710",
    "longitude": "120.56103650",
    "wikiDataId": null
  },
  {
    "id": 159477,
    "name": "Wencheng",
    "state_id": 2247,
    "state_code": "ZJ",
    "country_id": 45,
    "country_code": "CN",
    "latitude": "27.79048520",
    "longitude": "120.08708830",
    "wikiDataId": null
  },
  {
    "id": 20219,
    "name": "Wenling",
    "state_id": 2247,
    "state_code": "ZJ",
    "country_id": 45,
    "country_code": "CN",
    "latitude": "28.37524000",
    "longitude": "121.38416000",
    "wikiDataId": null
  },
  {
    "id": 159525,
    "name": "Wenling",
    "state_id": 2247,
    "state_code": "ZJ",
    "country_id": 45,
    "country_code": "CN",
    "latitude": "28.37619410",
    "longitude": "121.38084080",
    "wikiDataId": null
  },
  {
    "id": 20226,
    "name": "Wenzhou",
    "state_id": 2247,
    "state_code": "ZJ",
    "country_id": 45,
    "country_code": "CN",
    "latitude": "27.99638990",
    "longitude": "120.69534500",
    "wikiDataId": null
  },
  {
    "id": 159500,
    "name": "Wucheng",
    "state_id": 2247,
    "state_code": "ZJ",
    "country_id": 45,
    "country_code": "CN",
    "latitude": "29.08965890",
    "longitude": "119.56665400",
    "wikiDataId": null
  },
  {
    "id": 159489,
    "name": "Wuxing",
    "state_id": 2247,
    "state_code": "ZJ",
    "country_id": 45,
    "country_code": "CN",
    "latitude": "30.85881310",
    "longitude": "120.18092760",
    "wikiDataId": null
  },
  {
    "id": 159502,
    "name": "Wuyi",
    "state_id": 2247,
    "state_code": "ZJ",
    "country_id": 45,
    "country_code": "CN",
    "latitude": "28.89653550",
    "longitude": "119.81159280",
    "wikiDataId": null
  },
  {
    "id": 20245,
    "name": "Wuzhen",
    "state_id": 2247,
    "state_code": "ZJ",
    "country_id": 45,
    "country_code": "CN",
    "latitude": "30.74536000",
    "longitude": "120.48510000",
    "wikiDataId": null
  },
  {
    "id": 159466,
    "name": "Xiangshan",
    "state_id": 2247,
    "state_code": "ZJ",
    "country_id": 45,
    "country_code": "CN",
    "latitude": "29.47983650",
    "longitude": "121.86494100",
    "wikiDataId": null
  },
  {
    "id": 20260,
    "name": "Xianju",
    "state_id": 2247,
    "state_code": "ZJ",
    "country_id": 45,
    "country_code": "CN",
    "latitude": "28.85470000",
    "longitude": "120.73168000",
    "wikiDataId": null
  },
  {
    "id": 159524,
    "name": "Xianju",
    "state_id": 2247,
    "state_code": "ZJ",
    "country_id": 45,
    "country_code": "CN",
    "latitude": "28.84995770",
    "longitude": "120.72510180",
    "wikiDataId": null
  },
  {
    "id": 20274,
    "name": "Xiaoshan",
    "state_id": 2247,
    "state_code": "ZJ",
    "country_id": 45,
    "country_code": "CN",
    "latitude": "30.16746000",
    "longitude": "120.25883000",
    "wikiDataId": null
  },
  {
    "id": 159451,
    "name": "Xiaoshan",
    "state_id": 2247,
    "state_code": "ZJ",
    "country_id": 45,
    "country_code": "CN",
    "latitude": "30.18618210",
    "longitude": "120.25975280",
    "wikiDataId": null
  },
  {
    "id": 159449,
    "name": "Xihu",
    "state_id": 2247,
    "state_code": "ZJ",
    "country_id": 45,
    "country_code": "CN",
    "latitude": "30.26169580",
    "longitude": "120.12566280",
    "wikiDataId": null
  },
  {
    "id": 159497,
    "name": "Xinchang",
    "state_id": 2247,
    "state_code": "ZJ",
    "country_id": 45,
    "country_code": "CN",
    "latitude": "29.50314690",
    "longitude": "120.89866310",
    "wikiDataId": null
  },
  {
    "id": 159483,
    "name": "Xiuzhou",
    "state_id": 2247,
    "state_code": "ZJ",
    "country_id": 45,
    "country_code": "CN",
    "latitude": "30.76683110",
    "longitude": "120.70493100",
    "wikiDataId": null
  },
  {
    "id": 159464,
    "name": "Yinzhou",
    "state_id": 2247,
    "state_code": "ZJ",
    "country_id": 45,
    "country_code": "CN",
    "latitude": "29.81557060",
    "longitude": "121.54528990",
    "wikiDataId": null
  },
  {
    "id": 20383,
    "name": "Yiwu",
    "state_id": 2247,
    "state_code": "ZJ",
    "country_id": 45,
    "country_code": "CN",
    "latitude": "29.31506000",
    "longitude": "120.07676000",
    "wikiDataId": null
  },
  {
    "id": 159506,
    "name": "Yiwu",
    "state_id": 2247,
    "state_code": "ZJ",
    "country_id": 45,
    "country_code": "CN",
    "latitude": "29.30930020",
    "longitude": "120.07038050",
    "wikiDataId": null
  },
  {
    "id": 159474,
    "name": "Yongjia",
    "state_id": 2247,
    "state_code": "ZJ",
    "country_id": 45,
    "country_code": "CN",
    "latitude": "28.15627800",
    "longitude": "120.68792040",
    "wikiDataId": null
  },
  {
    "id": 159508,
    "name": "Yongkang",
    "state_id": 2247,
    "state_code": "ZJ",
    "country_id": 45,
    "country_code": "CN",
    "latitude": "28.89189670",
    "longitude": "120.04278380",
    "wikiDataId": null
  },
  {
    "id": 159494,
    "name": "Yuecheng",
    "state_id": 2247,
    "state_code": "ZJ",
    "country_id": 45,
    "country_code": "CN",
    "latitude": "29.98330380",
    "longitude": "120.61266160",
    "wikiDataId": null
  },
  {
    "id": 159480,
    "name": "Yueqing",
    "state_id": 2247,
    "state_code": "ZJ",
    "country_id": 45,
    "country_code": "CN",
    "latitude": "28.11784980",
    "longitude": "120.97957610",
    "wikiDataId": null
  },
  {
    "id": 159452,
    "name": "Yuhang",
    "state_id": 2247,
    "state_code": "ZJ",
    "country_id": 45,
    "country_code": "CN",
    "latitude": "30.27624310",
    "longitude": "119.97464710",
    "wikiDataId": null
  },
  {
    "id": 159527,
    "name": "Yuhuan",
    "state_id": 2247,
    "state_code": "ZJ",
    "country_id": 45,
    "country_code": "CN",
    "latitude": "28.13954690",
    "longitude": "121.22762880",
    "wikiDataId": null
  },
  {
    "id": 159533,
    "name": "Yunhe",
    "state_id": 2247,
    "state_code": "ZJ",
    "country_id": 45,
    "country_code": "CN",
    "latitude": "28.11853180",
    "longitude": "119.56840020",
    "wikiDataId": null
  },
  {
    "id": 20411,
    "name": "Yuyao",
    "state_id": 2247,
    "state_code": "ZJ",
    "country_id": 45,
    "country_code": "CN",
    "latitude": "30.05000000",
    "longitude": "121.14944000",
    "wikiDataId": null
  },
  {
    "id": 159468,
    "name": "Yuyao",
    "state_id": 2247,
    "state_code": "ZJ",
    "country_id": 45,
    "country_code": "CN",
    "latitude": "30.04030940",
    "longitude": "121.15008820",
    "wikiDataId": null
  },
  {
    "id": 20430,
    "name": "Zhaobaoshan",
    "state_id": 2247,
    "state_code": "ZJ",
    "country_id": 45,
    "country_code": "CN",
    "latitude": "29.96950000",
    "longitude": "121.68753000",
    "wikiDataId": null
  },
  {
    "id": 159463,
    "name": "Zhenhai",
    "state_id": 2247,
    "state_code": "ZJ",
    "country_id": 45,
    "country_code": "CN",
    "latitude": "29.96738570",
    "longitude": "121.59251170",
    "wikiDataId": null
  },
  {
    "id": 20444,
    "name": "Zhicheng",
    "state_id": 2247,
    "state_code": "ZJ",
    "country_id": 45,
    "country_code": "CN",
    "latitude": "31.00751000",
    "longitude": "119.90851000",
    "wikiDataId": null
  },
  {
    "id": 20461,
    "name": "Zhoushan",
    "state_id": 2247,
    "state_code": "ZJ",
    "country_id": 45,
    "country_code": "CN",
    "latitude": "29.98733440",
    "longitude": "122.20303630",
    "wikiDataId": null
  },
  {
    "id": 20467,
    "name": "Zhuji",
    "state_id": 2247,
    "state_code": "ZJ",
    "country_id": 45,
    "country_code": "CN",
    "latitude": "29.71877000",
    "longitude": "120.24233000",
    "wikiDataId": null
  },
  {
    "id": 159498,
    "name": "Zhuji",
    "state_id": 2247,
    "state_code": "ZJ",
    "country_id": 45,
    "country_code": "CN",
    "latitude": "29.71121210",
    "longitude": "120.24198550",
    "wikiDataId": null
  }
]