[
  {
    "id": 135168,
    "name": "Breiðdalshreppur",
    "state_id": 5565,
    "state_code": "FJD",
    "country_id": 100,
    "country_code": "IS",
    "latitude": "64.83333000",
    "longitude": "-14.25000000",
    "wikiDataId": null
  },
  {
    "id": 135172,
    "name": "Egilsstaðir",
    "state_id": 5565,
    "state_code": "FJD",
    "country_id": 100,
    "country_code": "IS",
    "latitude": "65.26687000",
    "longitude": "-14.39485000",
    "wikiDataId": null
  },
  {
    "id": 135173,
    "name": "Eskifjörður",
    "state_id": 5565,
    "state_code": "FJD",
    "country_id": 100,
    "country_code": "IS",
    "latitude": "65.07306000",
    "longitude": "-14.01525000",
    "wikiDataId": null
  },
  {
    "id": 135177,
    "name": "Fjarðabyggð",
    "state_id": 5565,
    "state_code": "FJD",
    "country_id": 100,
    "country_code": "IS",
    "latitude": "65.08333000",
    "longitude": "-14.00000000",
    "wikiDataId": null
  },
  {
    "id": 135203,
    "name": "Neskaupstaður",
    "state_id": 5565,
    "state_code": "FJD",
    "country_id": 100,
    "country_code": "IS",
    "latitude": "65.14819000",
    "longitude": "-13.68368000",
    "wikiDataId": null
  },
  {
    "id": 135207,
    "name": "Reyðarfjörður",
    "state_id": 5565,
    "state_code": "FJD",
    "country_id": 100,
    "country_code": "IS",
    "latitude": "65.03164000",
    "longitude": "-14.21832000",
    "wikiDataId": null
  }
]